KPI_DON_code,NSO_DON_name,NSO_ZON_name,iso_3,iso_2,lat,long,admission_date,admission_date_note,cur_code,country,ZON_Code,url,twitter,SearchString,facebook,othersocial
DAF001,Afghan Red Crescent,Asia Pacific,AFG,AF,33.93911,67.709953,26.10.1957,"",AFN,Afghanistan,S3,https://arcs.af/,https://twitter.com/ARCSAfghanistan,Afghanistan - Afghan Red Crescent,,
DAL001,Albanian Red Cross,Europe and Central Asia,ALB,AL,41.153332,20.168331,08.02.1923,"",ALL,Albania,S4,http://www.kksh.org.al,,Albania - Albanian Red Cross,,
DDZ001,Algerian Red Crescent,Middle East and North Africa,DZA,DZ,28.033886,1.659626,28.08.1963,"",DZD,Algeria,S5,www.cra.dz,@DrhamlaouiIbti1,Algeria - Algerian Red Crescent,Dr Hamlaoui Ibtissem,
DUS001,American Red Cross,Americas,USA,US,37.09024,-95.712891,05.05.1919,"",USD,United States,S2,http://www.redcross.org,https://twitter.com/redcross,United States - American Red Cross,https://www.facebook.com/redcross/,
DAD001,Andorran Red Cross,Europe and Central Asia,AND,AD,42.546245,1.601554,27.11.1995,"",EUR,Andorra,S4,http://www.creuroja.ad,https://twitter.com/creuroja,Andorra - Andorran Red Cross,https://www.facebook.com/CRAndorra/,
DAO001,Angola Red Cross,Africa,AGO,AO,-11.202692,17.873887,18.10.1986,"",AOA,Angola,S1,,,Angola - Angola Red Cross,,
DAG001,Antigua and Barbuda Red Cross,Americas,ATG,AG,17.060816,-61.796428,25.10.1993,"",XCD,Antigua and Barbuda,S2,,,Antigua and Barbuda - Antigua and Barbuda Red Cross,https://www.facebook.com/AntiguaBarbudaRedCross,
DAR001,Argentine Red Cross,Americas,ARG,AR,-38.416097,-63.616672,23.06.1919,"",ARS,Argentina,S2,http://www.cruzroja.org.ar,https://twitter.com/cruzrojaarg    /     Instagram: @cruzrojaargentina,Argentina - Argentine Red Cross,https://www.facebook.com/Cruz-Roja-Argentina-p%C3%A1gina-oficial-150908451632285/,
DAM001,Armenian Red Cross Society,Europe and Central Asia,ARM,AM,40.069099,45.038189,27.11.1995,"",AMD,Armenia,S4,http://redcross.am,https://twitter.com/RedCrossArmenia,Armenia - Armenian Red Cross Society,https://www.facebook.com/ArmenianRedCrossSociety/,
DAU001,Australian Red Cross,Asia Pacific,AUS,AU,-25.274398,133.775136,19.06.1919,"",AUD,Australia,S3,http://www.redcross.org.au/,,Australia - Australian Red Cross,,
DAT001,Austrian Red Cross,Europe and Central Asia,AUT,AT,47.516231,14.550072,20.04.1921,"",EUR,Austria,S4,http://www.roteskreuz.at,,Austria - Austrian Red Cross,,
DBH001,Bahrain Red Crescent Society,Middle East and North Africa,BHR,BH,25.930414,50.637772,11.02.1973,"",BHD,Bahrain,S5,http://www.rcsbahrain.org,https://twitter.com/rcsbahrain?lang=fr,Bahrain - Bahrain Red Crescent Society,https://www.facebook.com/BahrainRedCrescent/,
DBD001,Bangladesh Red Crescent Society,Asia Pacific,BGD,BD,23.684994,90.356331,11.02.1973,"",BDT,Bangladesh,S3,http://www.bdrcs.org,@BDRCS1 (https://twitter.com/BDRCS1),Bangladesh - Bangladesh Red Crescent Society,https://www.facebook.com/bdredcrescent/,
DSZ001,Baphalali Eswatini Red Cross Society,Africa,SWZ,SZ,-26.522503,31.465866,10.04.1979,"",SZL,"Eswatini, the Kingdom of",S1,,,"Eswatini, the Kingdom of - Baphalali Eswatini Red Cross Society",,
DBY001,Belarus Red Cross,Europe and Central Asia,BLR,BY,53.709807,27.953389,27.11.1995,"",BYR,Belarus,S4,https://redcross.by,https://twitter.com/Red_cross_BY,Belarus - Belarus Red Cross,https://www.facebook.com/redcross.by/,
DBE001,Belgian Red Cross,Europe and Central Asia,BEL,BE,50.503887,4.469936,27.05.1919,"",EUR,Belgium,S4,"http://www.croix-rouge.be, http://www.rodekruis.be",https://twitter.com/croixrougebe,Belgium - Belgian Red Cross,https://www.facebook.com/CroixRouge/,https://www.instagram.com/croixrougebe/
DBE004,Belgian Red Cross (Flandres),Europe and Central Asia,BEL,BE,50.503887,4.469936,27.05.1919,"",EUR,Belgium,S4,,,Belgium - Belgian Red Cross (Flandres),,
DBZ001,Belize Red Cross Society,Americas,BLZ,BZ,17.189877,-88.49765,20.10.1985,"",BZD,Belize,S2,,https://twitter.com/belizeredcross?lang=fr,Belize - Belize Red Cross Society,https://www.facebook.com/BelizeRedCross/,
DBT001,Bhutan Red Cross,Asia Pacific,BTN,BT,27.46609,89.64191,09.08.2019,"",BTN,Bhutan,S3,,,Bhutan - Bhutan Red Cross,https://www.facebook.com/bhutanredcrosssociety/,
DBO001,Bolivian Red Cross,Americas,BOL,BO,-16.290154,-63.588653,25.05.1923,"",BOB,"Bolivia, Plurinational State of",S2,http://www.cruzrojaboliviana.org,,"Bolivia, Plurinational State of - Bolivian Red Cross",https://www.facebook.com/cruzrojaboliviana,
DBW001,Botswana Red Cross Society,Africa,BWA,BW,-22.328474,24.684866,10.12.1971,"",BWP,Botswana,S1,http://www.botswanaredcross.org.bw,https://twitter.com/botswanarcs,Botswana - Botswana Red Cross Society,https://www.facebook.com/brcspage/,
DBR001,Brazilian Red Cross,Americas,BRA,BR,-14.235004,-51.92528,17.06.1919,"",BRL,Brazil,S2,http://www.cruzvermelha.org.br/,https://twitter.com/cvborgaocentral?lang=fr,Brazil - Brazilian Red Cross,https://www.facebook.com/cruzvermelhabrasileira.orgaocentral/,
DGB001,British Red Cross,Europe and Central Asia,GBR,GB,55.378051,-3.435973,05.05.1919,"",GBP,United Kingdom,S4,http://www.redcross.org.uk/,https://twitter.com/BritishRedCross,United Kingdom - British Red Cross,https://www.facebook.com/BritishRedCross/,https://www.instagram.com/britishredcross/
DBN001,Brunei Darussalam Red Crescent Society,Asia Pacific,BRN,BN,4.535277,114.727669,20.11.1997,"",BND,Brunei Darussalam,S3,,https://twitter.com/BRedcrescent,Brunei Darussalam - Brunei Darussalam Red Crescent Society,https://www.facebook.com/bruneired.crescent,
DBG001,Bulgarian Red Cross,Europe and Central Asia,BGR,BG,42.733883,25.48583,20.07.1921,"",BGN,Bulgaria,S4,http://www.redcross.bg,https://twitter.com/BGRedCross,Bulgaria - Bulgarian Red Cross,https://www.facebook.com/BulgarianRedCross/?fref=ts,https://www.instagram.com/bgredcross
DBF001,Burkinabe Red Cross Society,Africa,BFA,BF,12.238333,-1.561593,28.08.1963,"",XOF,Burkina Faso,S1,http://www.croixrougebf.org,,Burkina Faso - Burkinabe Red Cross Society,,
DBI001,Burundi Red Cross,Africa,BDI,BI,-3.373056,29.918886,28.08.1963,"",BIF,Burundi,S1,http://croixrouge.bi/,https://twitter.com/croix_rougebdi,Burundi - Burundi Red Cross,https://www.facebook.com/CroixRougeBurundi/,
DKH001,Cambodian Red Cross Society,Asia Pacific,KHM,KH,12.565679,104.990963,10.02.1961,"",KHR,Cambodia,S3,http://www.redcross.org.kh,https://twitter.com/cambodianrcross?lang=fr,Cambodia - Cambodian Red Cross Society,https://www.facebook.com/crcnhq/,
DCM001,Cameroon Red Cross Society,Africa,CMR,CM,7.369722,12.354722,28.08.1963,"",XAF,Cameroon,S1,,,Cameroon - Cameroon Red Cross Society,,
DCF001,Central African Red Cross Society,Africa,CAF,CF,6.611111,20.939444,29.10.1975,"",XAF,Central African Republic,S1,,,Central African Republic - Central African Red Cross Society,https://www.facebook.com/Croix-Rouge-Centrafricaine-1516713188552357/,
DCL001,Chilean Red Cross,Americas,CHL,CL,-35.675147,-71.542969,02.01.1920,"",CLP,Chile,S2,http://www.cruzroja.cl,,Chile - Chilean Red Cross,https://www.facebook.com/cruz.roja.chile,
DCO001,Colombian Red Cross Society,Americas,COL,CO,4.570868,-74.297333,29.03.1922,"",COP,Colombia,S2,http://www.cruzrojacolombiana.org,https://twitter.com/cruzrojacol,Colombia - Colombian Red Cross Society,https://www.facebook.com/cruzrojacolombiana/,
DCG001,Congolese Red Cross,Africa,COG,CG,-0.228021,15.827659,10.07.1977,"",XAF,Congo,S1,,,Congo - Congolese Red Cross,https://www.facebook.com/Croix-Rouge-Congo-Brazzaville-595974027195586/,
DCK001,Cook Islands Red Cross Society,Asia Pacific,COK,CK,-21.236736,-159.777671,28.11.2003,"",NZD,Cook Islands,S3,,,Cook Islands - Cook Islands Red Cross Society,,
DCR001,Costa Rican Red Cross,Americas,CRI,CR,9.748917,-83.753428,04.05.1922,"",CRC,Costa Rica,S2,http://www.cruzroja.or.cr,https://twitter.com/cruzrojacrc,Costa Rica - Costa Rican Red Cross,www.facebook.com/cruzrojacostarricense,
DHR001,Croatian Red Cross,Europe and Central Asia,HRV,HR,45,15,25.10.1993,"",HRK,Croatia,S4,http://www.hck.hr/,https://twitter.com/crvenikriz_hr,Croatia - Croatian Red Cross,https://www.facebook.com/HrvatskiCrvenikriz.CroatianRedCross/?ref=page_internal,https://www.instagram.com/hrvatski_crveni_kriz/
DCU001,Cuban Red Cross,Americas,CUB,CU,21.521757,-77.781167,17.07.1919,"",CUP,Cuba,S2,http://www.sld.cu/sitios/cruzroja/,,Cuba - Cuban Red Cross,,
DCY001,Cyprus Red Cross Society,Europe and Central Asia,CYP,CY,35.126413,33.429859,11.12.2013,"",EUR,Cyprus,S4,http://www.redcross.org.cy,,Cyprus - Cyprus Red Cross Society,https://www.facebook.com/cyprusredcross,
DCZ001,Czech Red Cross,Europe and Central Asia,CZE,CZ,49.817492,15.472962,25.10.1993,"",CZK,Czech Republic,S4,http://www.cervenykriz.eu,https://twitter.com/cck_tweetuje,Czech Republic - Czech Red Cross,https://www.facebook.com/cervenykriz/,
DDK001,Danish Red Cross,Europe and Central Asia,DNK,DK,56.26392,9.501785,07.12.1919, and rejoined in 1930,DKK,Denmark,S4,http://www.rodekors.dk,,Denmark - Danish Red Cross,,
DDM001,Dominica Red Cross Society,Americas,DMA,DM,15.414999,-61.370976,21.10.1989,"",XCD,Dominica,S2,https://www.dominicaredcross.com/,,Dominica - Dominica Red Cross Society,,
DDO001,Dominican Red Cross,Americas,DOM,DO,18.735693,-70.162651,19.01.1931,"",DOP,Dominican Republic,S2,http://www.cruzroja.org.do/,,Dominican Republic - Dominican Red Cross,,
DEC001,Ecuadorian Red Cross,Americas,ECU,EC,-1.831239,-78.183406,25.05.1923,"",USD,Ecuador,S2,http://www.cruzroja.org.ec,,Ecuador - Ecuadorian Red Cross,,
DEG001,Egyptian Red Crescent Society,Middle East and North Africa,EGY,EG,26.820553,30.802498,23.06.1929,"",EGP,Egypt,S5,http://www.egyptianrc.org,,Egypt - Egyptian Red Crescent Society,,
DEE001,Estonia Red Cross,Europe and Central Asia,EST,EE,58.595272,25.013607,25.02.1922, and reintegrated 25.10.1993,EUR,Estonia,S4,http://www.redcross.ee,,Estonia - Estonia Red Cross,https://www.facebook.com/punanerist/,https://www.instagram.com/punanerist/ 
DET001,Ethiopian Red Cross Society,Africa,ETH,ET,9.145,40.489673,16.10.1950,"",ETB,Ethiopia,S1,http://www.redcrosseth.org,https://twitter.com/ercsinfo,Ethiopia - Ethiopian Red Cross Society,https://www.facebook.com/EthiopianRedCross/,
DFJ001,Fiji Red Cross Society,Asia Pacific,FJI,FJ,-16.578193,179.414413,11.02.1973,"",FJD,Fiji,S3,http://www.fijiredcross.org,@FijiRedCross,Fiji - Fiji Red Cross Society,https://www.facebook.com/FijiRedCrossSociety/,
DFI001,Finnish Red Cross,Europe and Central Asia,FIN,FI,61.92411,25.748151,06.08.1921,"",EUR,Finland,S4,http://www.redcross.fi,Twitter.com/punainenristi,Finland - Finnish Red Cross,Facebook.com/punainenristi,
DFR001,French Red Cross,Europe and Central Asia,FRA,FR,46.227638,2.213749,05.05.1919,"",EUR,France,S4,http://www.croix-rouge.fr,https://twitter.com/croixrouge?lang=fr,France - French Red Cross,https://www.facebook.com/fr.CroixRouge/?fref=ts ,
DGA001,Gabonese Red Cross Society,Africa,GAB,GA,-0.803689,11.609444,23.10.1999,"",XAF,Gabon,S1,www.croixrouge-gabon.org,,Gabon - Gabonese Red Cross Society,,
DDE001,German Red Cross,Europe and Central Asia,DEU,DE,51.165691,10.451526,24.07.1952,"",EUR,Germany,S4,http://www.drk.de/,https://twitter.com/roteskreuz_de,Germany - German Red Cross,https://www.facebook.com/roteskreuz,https://www.instagram.com/germanredcross/
DGH001,Ghana Red Cross Society,Africa,GHA,GH,7.946527,-1.023194,25.09.1959,"",GHS,Ghana,S1,http://www.redcrossghana.org,https://twitter.com/ghanaredcross,Ghana - Ghana Red Cross Society,https://www.facebook.com/Ghana-RED-Cross-Society-164077243641477/,
DGD001,Grenada Red Cross Society,Americas,GRD,GD,12.262776,-61.604171,23.11.1987,"",XCD,Grenada,S2,https://grenadaredcross.gd/,,Grenada - Grenada Red Cross Society,,
DGT001,Guatemalan Red Cross,Americas,GTM,GT,15.783471,-90.230759,15.08.1923,"",GTQ,Guatemala,S2,www.cruzroja.gt,,Guatemala - Guatemalan Red Cross,,
DHT001,Haiti Red Cross Society,Americas,HTI,HT,18.971187,-72.285215,05.03.1937,"",HTG,Haiti,S2,http://www.croixrouge.ht,Croix-Rouge Haïtienne@KwaWouj,Haiti - Haiti Red Cross Society,Société Nationale de la Croix-Rouge Haïtienne@Croix-RougeHaïtienne,
DGR001,Hellenic Red Cross,Europe and Central Asia,GRC,GR,39.074208,21.824312,26.06.1919,"",EUR,Greece,S4,http://www.redcross.gr,https://twitter.com/greekredcross,Greece - Hellenic Red Cross,https://www.facebook.com/greekredcrossofficial,https://www.instagram.com/hellenicredcross/
DHN001,Honduran Red Cross,Americas,HND,HN,15.199999,-86.241905,27.11.1945,"",HNL,Honduras,S2,http://www.cruzroja.org.hn,com/cruzrojahon,Honduras - Honduran Red Cross,com/cruzrojahon,
DHU001,Hungarian Red Cross,Europe and Central Asia,HUN,HU,47.162494,19.503304,14.06.1921,"",HUF,Hungary,S4,http://www.redcross.hu,,Hungary - Hungarian Red Cross,,
DIS001,Icelandic Red Cross,Europe and Central Asia,ISL,IS,64.963051,-19.020835,30.05.1925,"",ISK,Iceland,S4,www.raudikrossinn.is,www.twitter.com/raudikrossinn,Iceland - Icelandic Red Cross,www.facebook.com/raudikrossinn,www.instagram.com/raudikrossinn
DIN001,Indian Red Cross Society,Asia Pacific,IND,IN,20.593684,78.96288,08.07.1919, as Joint War Committee Indian Branch of the Order of St. John of Jerusalem and the Britis,INR,India,S3,http://www.indianredcross.org,,India - Indian Red Cross Society,https://www.facebook.com/ircsofficial/,
DID001,Indonesian Red Cross Society,Asia Pacific,IDN,ID,-0.789275,113.921327,16.10.1950,"",IDR,Indonesia,S3,http://www.pmi.or.id/,https://twitter.com/palangmerah,Indonesia - Indonesian Red Cross Society,https://www.facebook.com/palangmerah/,
DIQ001,Iraqi Red Crescent Society,Middle East and North Africa,IRQ,IQ,33.223191,43.679291,23.06.1934,"",IQD,Iraq,S5,http://www.ircs.org.iq,@iraqircs,Iraq - Iraqi Red Crescent Society,,
DIE001,Irish Red Cross Society,Europe and Central Asia,IRL,IE,53.41291,-8.24389,24.11.1945,"",EUR,Ireland,S4,http://www.redcross.ie,ww.twitter.com/irishredcross,Ireland - Irish Red Cross Society,www.facebook.com/irishredcross,https://www.instagram.com/irishredcross/
DIL001,Israel - Magen David Adom in Israel,Europe and Central Asia,ISR,IL,31.046051,34.851612,22.06.2006,"",ILS,Israel,S4,https://www.mdais.org/en/,,Israel - Israel - Magen David Adom in Israel,,
DIT001,Italian Red Cross,Europe and Central Asia,ITA,IT,41.87194,12.56738,05.05.1919,"",EUR,Italy,S4,http://www.cri.it/,https://twitter.com/crocerossa,Italy - Italian Red Cross,https://www.facebook.com/ItalianRedCross ,https://www.instagram.com/crocerossaitaliana/
DJM001,Jamaica Red Cross,Americas,JAM,JM,18.109581,-77.297508,28.09.1965,"",JMD,Jamaica,S2,http://www.jamaicaredcross.org,,Jamaica - Jamaica Red Cross,,
DJP001,Japanese Red Cross Society,Asia Pacific,JPN,JP,36.204824,138.252924,05.05.1919,"",JPY,Japan,S3,http://www.jrc.or.jp,@JRCS_PR,Japan - Japanese Red Cross Society,@japaneseredcross,
DJO001,Jordan National Red Crescent Society,Middle East and North Africa,JOR,JO,30.585164,36.238414,16.10.1950,"",JOD,Jordan,S5,,https://twitter.com/_jnrcs?lang=en,Jordan - Jordan National Red Crescent Society,https://www.facebook.com/JordanRedCrescent/,
DKZ001,Kazakh Red Crescent,Europe and Central Asia,KAZ,KZ,48.019573,66.923684,28.11.2003,"",KZT,Kazakhstan,S4,https://redcrescent.kz/en/home/,https://twitter.com/KZ_RED_CRESCENT?lang=en,Kazakhstan - Kazakh Red Crescent,https://www.facebook.com/redcrescent.kz/,https://www.instagram.com/redcrescent.kz/
DKE001,Kenya Red Cross Society,Africa,KEN,KE,-0.023559,37.906193,09.05.1967,"",KES,Kenya,S1,http://www.redcross.or.ke,https://twitter.com/kenyaredcross,Kenya - Kenya Red Cross Society,https://www.facebook.com/RedCrossKE/,https://www.instagram.com/redcrosske
DKI001,Kiribati Red Cross Society,Asia Pacific,KIR,KI,-3.370417,-168.734039,20.11.1997,"",AUD,Kiribati,S3,,,Kiribati - Kiribati Red Cross Society,,
DKW001,Kuwait Red Crescent Society,Middle East and North Africa,KWT,KW,29.31166,47.481766,09.01.1969,"",KWD,Kuwait,S5,http://www.krcs.org.kw,https://twitter.com/krcs_org_kw,Kuwait - Kuwait Red Crescent Society,https://www.facebook.com/krcs.red,https://www.instagram.com/k.r.c.s/
DLA001,Lao Red Cross,Asia Pacific,LAO,LA,19.85627,102.495496,26.10.1957,"",LAK,Lao People's Democratic Republic,S3,,,Lao People's Democratic Republic - Lao Red Cross,www.facebook.com/LaoRedCrossSociety,
DLV001,Latvian Red Cross,Europe and Central Asia,LVA,LV,56.879635,24.603189,25.05.1923, and reintegrated 25.11.1991,EUR,Latvia,S4,http://www.redcross.lv,,Latvia - Latvian Red Cross,https://www.facebook.com/LatvijasSarkanaisKrusts/,red_cross_youth_latvia
DLB001,Lebanese Red Cross,Middle East and North Africa,LBN,LB,33.854721,35.862285,18.08.1948,"",LBP,Lebanon,S5,http://www.redcross.org.lb,https://twitter.com/RedCrossLebanon,Lebanon - Lebanese Red Cross,https://www.facebook.com/LebaneseRedCross/,
DLS001,Lesotho Red Cross Society,Africa,LSO,LS,-29.609988,28.233608,10.12.1971,"",LSL,Lesotho,S1,http://www.redcross.org.ls,,Lesotho - Lesotho Red Cross Society,,
DLR001,Liberian Red Cross Society,Africa,LBR,LR,6.428055,-9.429499,26.09.1959,"",LRD,Liberia,S1,,,Liberia - Liberian Red Cross Society,https://www.facebook.com/LiberianRedCross/ ,
DLY001,Libyan Red Crescent,Middle East and North Africa,LBY,LY,26.3351,17.228331,26.09.1958,"",LYD,Libya,S5,,https://twitter.com/LibyaRC,Libya - Libyan Red Crescent,https://www.facebook.com/libyan.red.crescent,https://www.instagram.com/libyanredcrescent/
DLI001,Liechtenstein Red Cross,Europe and Central Asia,LIE,LI,47.166,9.555373,12.05.1945,"",CHF,Liechtenstein,S4,http://www.roteskreuz.li,,Liechtenstein - Liechtenstein Red Cross,https://de-de.facebook.com/roteskreuz.li/,https://www.instagram.com/roteskreuz_fl/?hl=de
DLT001,Lithuanian Red Cross Society,Europe and Central Asia,LTU,LT,55.169438,23.881275,01.12.1924, and reintegrated 25.11.1991,EUR,Lithuania,S4,https://redcross.lt/,,Lithuania - Lithuanian Red Cross Society,https://www.facebook.com/redcross.lt,https://instagram.com/lietuvosraudonasiskryzius?utm_medium=copy_link
DLU001,Luxembourg Red Cross,Europe and Central Asia,LUX,LU,49.815273,6.129583,29.10.1921,"",EUR,Luxembourg,S4,http://www.croix-rouge.lu/,,Luxembourg - Luxembourg Red Cross,,
DMG001,Malagasy Red Cross Society,Africa,MDG,MG,-18.766947,46.869107,28.08.1963,"",MGA,Madagascar,S1,https://www.croixrougemalagasy.mg/,,Madagascar - Malagasy Red Cross Society,,
DMW001,Malawi Red Cross Society,Africa,MWI,MW,-13.254308,34.301525,10.12.1971,"",MWK,Malawi,S1,,https://twitter.com/MalawiRedCross,Malawi - Malawi Red Cross Society,,
DMY001,Malaysian Red Crescent Society,Asia Pacific,MYS,MY,4.210484,101.975766,28.08.1963,"",MYR,Malaysia,S3,http://www.redcrescent.org.my,,Malaysia - Malaysian Red Crescent Society,,
DMV001,Maldivian Red Crescent,Asia Pacific,MDV,MV,3.202778,73.22068,23.11.2011,"",MVR,Maldives,S3,http://www.redcrescent.org.mv,@maldivianrc,Maldives - Maldivian Red Crescent,@maldivian.red.,
DML001,Mali Red Cross,Africa,MLI,ML,17.570692,-3.996166,09.01.1969,"",XOF,Mali,S1,http://www.croixrouge-mali.org,,Mali - Mali Red Cross,,
DMT001,Malta Red Cross Society,Europe and Central Asia,MLT,MT,35.937496,14.375416,25.10.1993,"",EUR,Malta,S4,http://www.redcross.org.mt,,Malta - Malta Red Cross Society,,
DMH001,Marshall Islands Red Cross Society,Asia Pacific,MHL,MH,7,171,01.01.2019,"",USD,Marshall Islands,S3,https://marshallredcross.org/,rmiredcross,Marshall Islands - Marshall Islands Red Cross Society,https://www.facebook.com/RMIRC/,
DMR001,Mauritanian Red Crescent,Africa,MRT,MR,21.00789,-10.940835,11.02.1973,"",MRO,Mauritania,S1,"",,Mauritania - Mauritanian Red Crescent,,
DMU001,Mauritius Red Cross Society,Africa,MUS,MU,-20.348404,57.552152,10.07.1977,"",MUR,Mauritius,S1,http://www.mauritiusredcross.org,,Mauritius - Mauritius Red Cross Society,,
DMX001,Mexican Red Cross,Americas,MEX,MX,23.634501,-102.552784,10.05.1923,"",MXN,Mexico,S2,https://www.cruzrojamexicana.org.mx,,Mexico - Mexican Red Cross,,
DFM001,Micronesia Red Cross,Asia Pacific,FSM,FM,7.425554,150.550812,28.11.2003,"",USD,"Micronesia, Federated States of",S3,    ,,"Micronesia, Federated States of - Micronesia Red Cross",https://www.facebook.com/mrcs181/  ,
DMN001,Mongolian Red Cross Society,Asia Pacific,MNG,MN,46.862496,103.846656,25.09.1959,"",MNT,Mongolia,S3,http://www.redcross.mn,,Mongolia - Mongolian Red Cross Society,,
DMA001,Moroccan Red Crescent,Middle East and North Africa,MAR,MA,31.791702,-7.09262,26.09.1959,"",MAD,Morocco,S5,,,Morocco - Moroccan Red Crescent,https://www.facebook.com/hilal.maroc.3,
DMZ001,Mozambique Red Cross Society,Africa,MOZ,MZ,-18.665695,35.529562,21.10.1989,"",MZN,Mozambique,S1,http://www.redcross.org.mz,,Mozambique - Mozambique Red Cross Society,,
DMM001,Myanmar Red Cross Society,Asia Pacific,MMR,MM,21.913965,95.956223,23.05.1946,"",MMK,Myanmar,S3,http://www.redcross.org.mm/,https://twitter.com/myanmarredcross,Myanmar - Myanmar Red Cross Society,https://www.facebook.com/info.mrcs,
DNA001,Namibia Red Cross,Africa,NAM,NA,-22.95764,18.49041,25.10.1993,"",NAD,Namibia,S1,,,Namibia - Namibia Red Cross,https://www.facebook.com/NamibiaRedCross/?rc=p,
DNP001,Nepal Red Cross Society,Asia Pacific,NPL,NP,28.394857,84.124008,28.09.1965,"",NPR,Nepal,S3,http://www.nrcs.org,,Nepal - Nepal Red Cross Society,www.facebook.com/nepalredcross,
DNZ001,New Zealand Red Cross,Asia Pacific,NZL,NZ,-40.900557,174.885971,07.11.1919,"",NZD,New Zealand,S3,redcross.org.nz,www.twitter.com/nzredcross,New Zealand - New Zealand Red Cross,www.facebook.com/nzredcross,
DNI001,Nicaraguan Red Cross* dissolved 9 May 2023,Americas,NIC,NI,12.865416,-85.207229,17.10.1934,"",NIO,Nicaragua,S2,http://cruzrojanicaraguense.org,,Nicaragua - Nicaraguan Red Cross* dissolved 9 May 2023,,
DNG001,Nigerian Red Cross Society,Africa,NGA,NG,9.081999,8.675277,10.02.1961,"",NGN,Nigeria,S1,http://www.redcrossnigeria.org,https://twitter.com/nrcs_ng?lang=en,Nigeria - Nigerian Red Cross Society,https://www.facebook.com/pg/NigerianRedCrossSocietyNhqts/about/?entry_point=page_nav_about_item&ref=page_internal,
DNO001,Norwegian Red Cross,Europe and Central Asia,NOR,NO,60.472024,8.468946,27.05.1919, and 01.01.1930,NOK,Norway,S4,http://www.redcross.no,https://twitter.com/rodekorsnorge?lang=no,Norway - Norwegian Red Cross,https://www.facebook.com/rodekors/,Røde Kors i Norge (@rodekorsnorge) • Instagram-bilder og -videoer
DPK001,Pakistan Red Crescent,Asia Pacific,PAK,PK,30.375321,69.345116,18.08.1948,"",PKR,Pakistan,S3,http://www.prcs.org.pk,,Pakistan - Pakistan Red Crescent,,
DPW001,Palau Red Cross Society,Asia Pacific,PLW,PW,7.51498,134.58252,20.11.1997,"",USD,Palau,S3,,,Palau - Palau Red Cross Society,,
DPG001,Papua New Guinea Red Cross Society,Asia Pacific,PNG,PG,-6.314993,143.95555,10.07.1977,"",PGK,Papua New Guinea,S3,,PNGRedCross,Papua New Guinea - Papua New Guinea Red Cross Society,PNG Red Cross Society,
DPY001,Paraguayan Red Cross,Americas,PRY,PY,-23.442503,-58.443832,23.03.1922,"",PYG,Paraguay,S2,http://www.cruzroja.org.py,,Paraguay - Paraguayan Red Cross,,
DPE001,Peruvian Red Cross,Americas,PER,PE,-9.189967,-75.015152,19.06.1919,"",PEN,Peru,S2,http://www.cruzroja.org.pe,,Peru - Peruvian Red Cross,,
DPH001,Philippine Red Cross,Asia Pacific,PHL,PH,12.879721,121.774017,18.08.1948,"",PHP,Philippines,S3,http://www.redcross.org.ph,,Philippines - Philippine Red Cross,,
DPL001,Polish Red Cross,Europe and Central Asia,POL,PL,51.919438,19.145136,16.09.1919,"",PLN,Poland,S4,http://www.pck.org.pl,,Poland - Polish Red Cross,,
DPT001,Portuguese Red Cross,Europe and Central Asia,PRT,PT,39.399872,-8.224454,28.05.1919,"",EUR,Portugal,S4,https://www.facebook.com/cruzvermelhaportuguesa.oficial,@cruzvermelha_pt ,Portugal - Portuguese Red Cross,www.facebook.com/cruzvermelhaportuguesa.sede/?fref=ts,https://www.instagram.com/cruz.vermelha.pt/ 
DQA001,Qatar Red Crescent Society,Middle East and North Africa,QAT,QA,25.354826,51.183884,11.02.1981,"",QAR,Qatar,S5,http://www.qrcs.org.qa/ar/Pages/default.aspx,,Qatar - Qatar Red Crescent Society,,
DAZ001,Red Crescent Society of Azerbaijan,Europe and Central Asia,AZE,AZ,40.143105,47.576927,27.11.1995,"",AZN,Azerbaijan,S4,http://www.redcrescent.org.az,https://twitter.com/AzRedCrescent,Azerbaijan - Red Crescent Society of Azerbaijan,https://www.facebook.com/azredcrescent,https://www.instagram.com/azredcrescent/
DDJ001,Red Crescent Society of Djibouti,Africa,DJI,DJ,11.825138,42.590275,18.10.1986,"",DJF,Djibouti,S1,,,Djibouti - Red Crescent Society of Djibouti,,
DKG001,Red Crescent Society of Kyrgyzstan,Europe and Central Asia,KGZ,KG,41.20438,74.766098,20.11.1997,"",KGS,Kyrgyzstan,S4,http://www.redcrescent.kg,,Kyrgyzstan - Red Crescent Society of Kyrgyzstan,,
DTJ001,Red Crescent Society of Tajikistan,Europe and Central Asia,TJK,TJ,38.861034,71.276093,20.11.1997,"",TJS,Tajikistan,S4,http://www.redcrescent.tj,,Tajikistan - Red Crescent Society of Tajikistan,,
DIR001,Red Crescent Society of the Islamic Republic of Iran,Middle East and North Africa,IRN,IR,32.427908,53.688046,21.01.1929,"",IRR,"Iran, Islamic Republic of",S5,http://www.rcs.ir,,"Iran, Islamic Republic of - Red Crescent Society of the Islamic Republic of Iran",,
DAE001,Red Crescent Society of the United Arab Emirates,Middle East and North Africa,ARE,AE,23.424076,53.847818,18.10.1986,"",AED,United Arab Emirates,S5,www.emiratesrc.ae,,United Arab Emirates - Red Crescent Society of the United Arab Emirates,,
DTM001,Red Crescent Society of Turkmenistan,Europe and Central Asia,TKM,TM,38.969719,59.556278,27.11.1995,"",TMT,Turkmenistan,S4,www.tgymj.gov.tm,,Turkmenistan - Red Crescent Society of Turkmenistan,,
DUZ001,Red Crescent Society of Uzbekistan,Europe and Central Asia,UZB,UZ,41.377491,64.585262,27.11.1995,"",UZS,Uzbekistan,S4,http://redcrescent.uz,,Uzbekistan - Red Crescent Society of Uzbekistan,,
DBJ001,Red Cross of Benin,Africa,BEN,BJ,9.30769,2.315834,28.08.1963,"",XOF,Benin,S1,www.croixrougebenin.org,,Benin - Red Cross of Benin,,
DCV001,Red Cross of Cape Verde,Africa,CPV,CV,16.002082,-24.013197,20.10.1985,"",CVE,Cape Verde,S1,,,Cape Verde - Red Cross of Cape Verde,,
DTD001,Red Cross of Chad,Africa,TCD,TD,15.454166,18.732207,21.10.1989,"",XAF,Chad,S1,,,Chad - Red Cross of Chad,https://www.facebook.com/croixrouge.dutchad,
DGQ001,Red Cross of Equatorial Guinea,Africa,GNQ,GQ,1.650801,10.267895,27.11.1995,"",XAF,Equatorial Guinea,S1,,,Equatorial Guinea - Red Cross of Equatorial Guinea,,
DMC001,Red Cross of Monaco,Europe and Central Asia,MCO,MC,43.750298,7.412841,18.08.1948,"",EUR,Monaco,S4,http://www.croix-rouge.mc,https://twitter.com/croixrougemc,Monaco - Red Cross of Monaco,https://www.facebook.com/croixrouge.monaco/,https://www.instagram.com/croixrougemc/
DME001,Red Cross of Montenegro,Europe and Central Asia,MNE,ME,42.708678,19.37439,20.11.2007,"",EUR,Montenegro,S4,http://www.ckcg.me,https://twitter.com/ckcg_mrc,Montenegro - Red Cross of Montenegro,https://www.facebook.com/CrvenikrstCG/,
DCD001,Red Cross of the Democratic Republic of the Congo,Africa,COD,CD,-4.038333,21.758664,28.08.1963,"",CDF,"Congo, the Democratic Republic of the",S1,http://www.croixrouge-rdc.org,https://twitter.com/crrdc1,"Congo, the Democratic Republic of the - Red Cross of the Democratic Republic of the Congo",https://www.facebook.com/croixrougerdc/,
DSM001,Red Cross of the Republic of San Marino,Europe and Central Asia,SMR,SM,43.94236,12.457777,25.07.1952,"",EUR,San Marino,S4,,,San Marino - Red Cross of the Republic of San Marino,,
DCN001,Red Cross Society of China,Asia Pacific,CHN,CN,35.86166,104.195397,27.07.1919,"",CNY,China,S3,http://www.redcross.org.cn,,China - Red Cross Society of China,,
DCI001,Red Cross Society of Côte d'Ivoire,Africa,CIV,CI,7.539989,-5.54708,28.08.1963,"",XOF,Côte d'Ivoire,S1,http://croixrouge.ci.over-blog.org,,Côte d'Ivoire - Red Cross Society of Côte d'Ivoire,,
DER001,Red Cross Society of Eritrea,Africa,ERI,ER,0,0,01.01.0001,,ERN,Eritrea,S1,,,Eritrea - Red Cross Society of Eritrea,,
DGE001,Red Cross Society of Georgia,Europe and Central Asia,GEO,GE,42.315407,43.356892,20.11.1997,"",GEL,Georgia,S4,http://www.redcross.ge,https://twitter.com/RedCrossGeorgia?ref_src=twsrc%5Egoogle%7Ctwcamp%5Eserp%7Ctwgr%5Eauthor,Georgia - Red Cross Society of Georgia,https://www.facebook.com/GeorgiaRedCross,https://www.instagram.com/georgiaredcrosssociety/
DGN001,Red Cross Society of Guinea,Africa,GIN,GN,9.945587,-9.696645,18.10.1986,"",GNF,Guinea,S1,projet en suspend,Croix-Rouge Guinée,Guinea - Red Cross Society of Guinea,Croix-Rouge Guinéenne,
DGW001,Red Cross Society of Guinea-Bissau,Africa,GNB,GW,11.803749,-15.180413,18.10.1986,"",XOF,Guinea-Bissau,S1,,,Guinea-Bissau - Red Cross Society of Guinea-Bissau,,
DNE001,Red Cross Society of Niger,Africa,NER,NE,17.607789,8.081666,28.09.1965,"",XOF,Niger,S1,,,Niger - Red Cross Society of Niger,,
DPA001,Red Cross Society of Panama,Americas,PAN,PA,8.537981,-80.782127,13.02.1925,"",PAB,Panama,S2,http://www.cruzroja.org.pa,,Panama - Red Cross Society of Panama,,
DKP001,Red Cross Society of the Democratic People's Republic of Korea,Asia Pacific,PRK,KP,40.339852,127.510093,26.10.1957,"",KPW,"Korea, Democratic People's Republic of",S3,http://www.friend.com.kp/dprkrcs/,,"Korea, Democratic People's Republic of - Red Cross Society of the Democratic People's Republic of Korea",,
DMD001,Red Cross Society of the Republic of Moldova,Europe and Central Asia,MDA,MD,47.411631,28.369885,11.07.2001,"",MDL,"Moldova, Republic of",S4,,Red Cross Moldova (@MdRedcross) / X (twitter.com),"Moldova, Republic of - Red Cross Society of the Republic of Moldova",https://www.facebook.com/redcross.md,
DRO001,Romanian Red Cross,Europe and Central Asia,ROU,RO,45.943161,24.96676,14.07.1919,"",RON,Romania,S4,http://www.crucearosie.ro/.,,Romania - Romanian Red Cross,https://www.facebook.com/crucearosieromana,https://www.instagram.com/crucearosieromana/
DRW001,Rwandan Red Cross,Africa,RWA,RW,-1.940278,29.873888,10.08.1983,"",RWF,Rwanda,S1,,https://twitter.com/Rwandaredcross,Rwanda - Rwandan Red Cross,,
DKN001,Saint Kitts and Nevis Red Cross Society,Americas,KNA,KN,17.357822,-62.782998,25.10.1993,"",XCD,Saint Kitts and Nevis,S2,,,Saint Kitts and Nevis - Saint Kitts and Nevis Red Cross Society,,
DLC001,Saint Lucia Red Cross,Americas,LCA,LC,13.909444,-60.978893,18.10.1986,"",XCD,Saint Lucia,S2,https://www.saintluciaredcross.org/,,Saint Lucia - Saint Lucia Red Cross,,
DVC001,Saint Vincent and the Grenadines Red Cross,Americas,VCT,VC,12.984305,-61.287228,21.10.1989,"",XCD,Saint Vincent and the Grenadines,S2,,,Saint Vincent and the Grenadines - Saint Vincent and the Grenadines Red Cross,,
DSV001,Salvadorean Red Cross Society,Americas,SLV,SV,13.794185,-88.89653,24.06.1925,"",USD,El Salvador,S2,http://www.cruzrojasal.org.sv,https://twitter.com/cruzrojasal?lang=fr,El Salvador - Salvadorean Red Cross Society,https://www.facebook.com/search/top/?q=cruz%20roja%20salvadore%C3%B1a,
DWS001,Samoa Red Cross Society,Asia Pacific,WSM,WS,-13.759029,-172.104629,20.10.1985,"",WST,Samoa,S3,,,Samoa - Samoa Red Cross Society,,
DST001,Sao Tome and Principe Red Cross,Africa,STP,ST,0.18636,6.613081,20.10.1985,"",STD,Sao Tome and Principe,S1,http://www.cruzvermelha-stop.org,,Sao Tome and Principe - Sao Tome and Principe Red Cross,,
DSA001,Saudi Red Crescent Authority,Middle East and North Africa,SAU,SA,23.885942,45.079162,28.08.1963,"",SAR,Saudi Arabia,S5,,@mediasrca,Saudi Arabia - Saudi Red Crescent Authority,@srca997,
DSN001,Senegalese Red Cross Society,Africa,SEN,SN,14.497401,-14.452362,28.08.1963,"",XOF,Senegal,S1,,https://twitter.com/CSenegalaise,Senegal - Senegalese Red Cross Society,,
DSC001,Seychelles Red Cross Society,Africa,SYC,SC,-4.679574,55.491977,25.10.1993,"",SCR,Seychelles,S1,http://www.seychellesredcross.sc,https://twitter.com/RedCrossSey,Seychelles - Seychelles Red Cross Society,https://www.facebook.com/pages/Red-Cross-society-of-Seychelles/512444422115061,
DSL001,Sierra Leone Red Cross Society,Africa,SLE,SL,8.460555,-11.779889,28.08.1963,"",SLL,Sierra Leone,S1,http://www.sierraleoneredcross.org,,Sierra Leone - Sierra Leone Red Cross Society,,
DSG001,Singapore Red Cross Society,Asia Pacific,SGP,SG,1.352083,103.819836,11.02.1973,"",SGD,Singapore,S3,http://www.redcross.sg,,Singapore - Singapore Red Cross Society,,
DSK001,Slovak Red Cross,Europe and Central Asia,SVK,SK,48.669026,19.699024,25.10.1993,"",EUR,Slovakia,S4,http://www.redcross.sk,,Slovakia - Slovak Red Cross,https://www.facebook.com/slovenskycervenykriz/ ,
DSI001,Slovenian Red Cross,Europe and Central Asia,SVN,SI,46.151241,14.995463,25.10.1993,"",EUR,Slovenia,S4,http://www.rks.si/,,Slovenia - Slovenian Red Cross,,
DSO001,Somali Red Crescent Society,Africa,SOM,SO,5.152149,46.199616,09.01.1969,"",SOS,Somalia,S1,http://www.bishacas-srcs.org,,Somalia - Somali Red Crescent Society,,
DSS001,South Sudan Red Cross,Africa,SSD,SS,6.877,31.307,11.12.2013,"",SSP,South Sudan,S1,https://www.ssdredcross.org/,https://twitter.com/SSRCS,South Sudan - South Sudan Red Cross,,
DES001,Spanish Red Cross,Europe and Central Asia,ESP,ES,40.463667,-3.74922,22.08.1919,"",EUR,Spain,S4,http://www.cruzroja.es,https://twitter.com/cruzrojaesp/,Spain - Spanish Red Cross,https://www.facebook.com/CruzRoja.es,https://www.instagram.com/cruzrojaesp/
DLK001,Sri Lanka Red Cross Society,Asia Pacific,LKA,LK,7.873054,80.771797,25.07.1952,"",LKR,Sri Lanka,S3,http://www.redcross.lk,www.twitter.com/SLRedCross ,Sri Lanka - Sri Lanka Red Cross Society,www.facebook.com/srilankaredcross,
DSR001,Suriname Red Cross,Americas,SUR,SR,3.919305,-56.027783,18.10.1986,"",SRD,Suriname,S2,,,Suriname - Suriname Red Cross,Het Surinaamse Rode Kruis,
DSE001,Swedish Red Cross,Europe and Central Asia,SWE,SE,60.128161,18.643501,26.06.1919, and 1930,SEK,Sweden,S4,http://www.redcross.se,https://twitter.com/RodaKorset,Sweden - Swedish Red Cross,www.facebook.com/rodakorset  ,https://www.instagram.com/rodakorset/
DCH001,Swiss Red Cross,Europe and Central Asia,CHE,CH,46.818188,8.227512,11.02.1919,"",CHF,Switzerland,S4,http://www.redcross.ch,,Switzerland - Swiss Red Cross,,
DSY001,Syrian Arab Red Crescent,Middle East and North Africa,SYR,SY,34.802075,38.996815,18.08.1948, and 29.09.1962,SYP,Syrian Arab Republic,S5,http://www.sarc.sy,https://twitter.com/syredcrescent?lang=en,Syrian Arab Republic - Syrian Arab Red Crescent,https://www.facebook.com/SYRedCrescent,
DTZ001,Tanzania Red Cross National Society,Africa,TZA,TZ,-6.369028,34.888822,28.08.1963,"",TZS,"Tanzania, United Republic of",S1,http://www.trcs.or.tz,,"Tanzania, United Republic of - Tanzania Red Cross National Society",,
DBS001,The Bahamas Red Cross Society,Americas,BHS,BS,25.03428,-77.39628,10.07.1977,"",BSD,Bahamas,S2,https://bahamasredcross.org/,,Bahamas - The Bahamas Red Cross Society,https://www.facebook.com/Bahamas-Red-Cross-Society-287498687576/,
DBB001,The Barbados Red Cross Society,Americas,BRB,BB,13.193887,-59.543198,20.10.1985,"",BBD,Barbados,S2,https://www.barbadosredcross.com/,https://twitter.com/bdosredcross,Barbados - The Barbados Red Cross Society,https://www.facebook.com/barbadosredcross/,
DCA001,The Canadian Red Cross Society,Americas,CAN,CA,56.130366,-106.346771,20.06.1919,"",CAD,Canada,S2,http://www.redcross.ca/,https://twitter.com/redcrosscanada,Canada - The Canadian Red Cross Society,https://www.facebook.com/canadianredcross/,
DKM001,The Comoros Red Crescent,Africa,COM,KM,-11.875001,43.872219,11.11.2005,"",KMF,Comoros,S1,http://www.cr-comorien.org,https://twitter.com/CRcomorien,Comoros - The Comoros Red Crescent,https://www.facebook.com/Croissant-Rouge-Comorien-127754897256789/,
DGM001,The Gambia Red Cross Society,Africa,GMB,GM,13.443182,-15.310139,29.10.1975,"",GMD,Gambia,S1,,https://twitter.com/GambiaRedCross,Gambia - The Gambia Red Cross Society,Gambia Red Cross Society,
DGY001,The Guyana Red Cross Society,Americas,GUY,GY,4.860416,-58.93018,09.01.1969,"",GYD,Guyana,S2,http://guyanaredcross.org.gy,,Guyana - The Guyana Red Cross Society,,
DNL001,The Netherlands Red Cross,Europe and Central Asia,NLD,NL,52.132633,5.291266,15.08.1919,"",EUR,Netherlands,S4,https://www.rodekruis.nl/,https://twitter.com/RodeKruis,Netherlands - The Netherlands Red Cross,https://www.facebook.com/rodekruis,https://www.instagram.com/rodekruis/
DPS001,The Palestine Red Crescent Society,Middle East and North Africa,PSE,PS,31.952162,35.233154,22.06.2006,"",ILS,"Palestine, State of",S5,http://www.palestinercs.org,,"Palestine, State of - The Palestine Red Crescent Society",,
DMK001,Red Cross of North Macedonia,Europe and Central Asia,MKD,MK,41.608635,21.745275,27.11.1995,"",MKD,North Macedonia,S4,www.redcross.org.mk,,North Macedonia - Red Cross of North Macedonia,https://www.facebook.com/CrvenKrstNaRepublikaSevernaMakedonija,https://www.instagram.com/macedonianredcross/
DRS001,The Red Cross of Serbia,Europe and Central Asia,SRB,RS,44.016521,21.005859,22.08.1919, and confirmed 27.10.2006,RSD,Serbia,S4,https://www.redcross.org.rs,https://twitter.com/CKSrbije,Serbia - The Red Cross of Serbia,https://www.facebook.com/redcrossofserbia,https://www.instagram.com/red_cross_serbia
DBA001,The Red Cross Society of Bosnia and Herzegovina,Europe and Central Asia,BIH,BA,43.915886,17.679076,11.07.2001,"",BAM,Bosnia and Herzegovina,S4,http://www.rcsbh.org,https://twitter.com/RedCrossBH,Bosnia and Herzegovina - The Red Cross Society of Bosnia and Herzegovina,https://www.facebook.com/dckbih,https://www.instagram.com/rcsbh/
DKR001,The Republic of Korea National Red Cross,Asia Pacific,KOR,KR,35.907757,127.766922,26.10.1957,"",KRW,"Korea, Republic of",S3,http://www.redcross.or.kr,https://twitter.com/KoreanRedCross,"Korea, Republic of - The Republic of Korea National Red Cross",https://facebook.com/koreanredcross.page,
DRU001,The Russian Red Cross Society,Europe and Central Asia,RUS,RU,61.52401,105.318756,19.10.1934,"",RUB,Russian Federation,S4,http://www.redcross.ru/,,Russian Federation - The Russian Red Cross Society,https://www.facebook.com/RussianRedCross1/,https://www.instagram.com/redcross_ru/ 
DSB001,The Solomon Islands Red Cross,Asia Pacific,SLB,SB,-9.64571,160.156194,25.11.1991,"",SBD,Solomon Islands,S3,,,Solomon Islands - The Solomon Islands Red Cross,https://www.facebook.com/solomonislandsredcrosssociety/?ref=bookmarks,
DZA001,The South African Red Cross Society,Africa,ZAF,ZA,-30.559482,22.937506,24.06.1919,"",ZAR,South Africa,S1,http://www.redcross.org.za,,South Africa - The South African Red Cross Society,,
DSD001,The Sudanese Red Crescent,Africa,SDN,SD,12.862807,30.217636,11.04.1957,"",SDG,Sudan,S1,http://srcs.sd/ar/arabic/index.php,,Sudan - The Sudanese Red Crescent,,
DTH001,The Thai Red Cross Society,Asia Pacific,THA,TH,15.870032,100.992541,04.08.1921,"",THB,Thailand,S3,http://www.redcross.or.th,https://twitter.com/thairedcross,Thailand - The Thai Red Cross Society,https://www.facebook.com/ThaiRedCrossSociety/,
DTT001,The Trinidad and Tobago Red Cross Society,Americas,TTO,TT,10.691803,-61.222503,28.08.1963,"",TTD,Trinidad and Tobago,S2,https://www.ttrcs.org/,https://twitter.com/TTRedCross?lang=en,Trinidad and Tobago - The Trinidad and Tobago Red Cross Society,https://www.facebook.com/TTRCS/,
DUG001,The Uganda Red Cross Society,Africa,UGA,UG,1.373333,32.290275,28.09.1965,"",UGX,Uganda,S1,http://www.redcrossug.org,https://twitter.com/UgandaRedCross,Uganda - The Uganda Red Cross Society,https://www.facebook.com/Uganda-Red-Cross-Society-117683891624272/,
DTL001,Timor-Leste Red Cross Society,Asia Pacific,TLS,TL,-8.874217,125.727539,11.11.2005,"",IDR,Timor-Leste,S3,http://www.redcross.tl,,Timor-Leste - Timor-Leste Red Cross Society,,
DTG001,Togolese Red Cross,Africa,TGO,TG,8.619543,0.824782,10.02.1961,"",XOF,Togo,S1,http://www.croixrouge-togo.org,,Togo - Togolese Red Cross,,
DTO001,Tonga Red Cross Society,Asia Pacific,TON,TO,-21.178986,-175.198242,11.02.1981,"",TOP,Tonga,S3,,tongaredcross,Tonga - Tonga Red Cross Society,tongaredcross face book,
DTN001,Tunisian Red Crescent,Middle East and North Africa,TUN,TN,33.886917,9.537499,26.10.1957,"",TND,Tunisia,S5,,,Tunisia - Tunisian Red Crescent,,
DTR001,Turkish Red Crescent Society,Europe and Central Asia,TUR,TR,38.963745,35.243322,04.07.1930,"",TRY,Turkey,S4,http://www.kizilay.org.tr/,https://www.twitter.com/redcrescent,Turkey - Turkish Red Crescent Society,https://www.facebook.com/redcrescent,https://instagram.com/turkkizilayint
DTV001,Tuvalu Red Cross Society,Asia Pacific,TUV,TV,-7.109535,177.64933,12.04.2015,"",TVD,Tuvalu,S3,,,Tuvalu - Tuvalu Red Cross Society,,
DUA001,Ukrainian Red Cross Society,Europe and Central Asia,UKR,UA,48.379433,31.16558,25.10.1993,"",UAH,Ukraine,S4,https://redcross.org.ua/,https://twitter.com/RedCrossUkraine,Ukraine - Ukrainian Red Cross Society,https://www.facebook.com/RedCrossUkraine/,https://www.instagram.com/redcrossukraine/?hl=uk
DUY001,Uruguayan Red Cross,Americas,URY,UY,-32.522779,-55.765835,17.01.1920,"",UYU,Uruguay,S2,,,Uruguay - Uruguayan Red Cross,,
DVU001,Vanuatu Red Cross Society,Asia Pacific,VUT,VU,-15.376706,166.959158,25.10.1993,"",VUV,Vanuatu,S3,www.vanuaturedcross.org,,Vanuatu - Vanuatu Red Cross Society,www.facebook.com/VanuatuRedCross/,
DVE001,Venezuelan Red Cross,Americas,VEN,VE,6.42375,-66.58973,15.07.1919,"",VEB,"Venezuela, Bolivarian Republic of",S2,,https://twitter.com/cruzrojave?lang=en,"Venezuela, Bolivarian Republic of - Venezuelan Red Cross",,https://www.instagram.com/cruzrojave/?hl=en
DVN001,Vietnam Red Cross Society,Asia Pacific,VNM,VN,14.058324,108.277199,11.04.1957,"",VND,Viet Nam,S3,http://redcross.org.vn/,,Viet Nam - Vietnam Red Cross Society,https://www.facebook.com/VietnamRedCross/,
DYE001,Yemen Red Crescent Society,Middle East and North Africa,YEM,YE,15.552727,48.516388,10.08.1983,"",YER,Yemen,S5,www.yemenredcrescent.org/,www.twitter.com/YemenCrescent,Yemen - Yemen Red Crescent Society,www.facebook.com/YemenRedCS,
DZM001,Zambia Red Cross Society,Africa,ZMB,ZM,-13.133897,27.849332,09.05.1967,"",ZMW,Zambia,S1,https://www.redcross.org.zm/,https://twitter.com/zambiaredcross,Zambia - Zambia Red Cross Society,https://www.facebook.com/Zambia-Red-Cross-Society-Headquaters-988838501146286/info/,
DZW001,Zimbabwe Red Cross Society,Africa,ZWE,ZW,-19.015438,29.154857,10.08.1983,"",ZWD,Zimbabwe,S1,http://www.redcrosszim.org.zw,,Zimbabwe - Zimbabwe Red Cross Society,,
