KPI_DON_code,NSO_DON_name,NSO_ZON_name,iso_3,iso_2,lat,long,admission_date,admission_date_note,cur_code,country,ZON_Code,url,facebook,twitter,SearchString,othersocial
DAF001,Afghan Red Crescent,Asia Pacific,AFG,AF,33.93911,67.709953,26.10.1957,"",AFN,Afghanistan,SP3,http://www.redcrescent.af,https://www.facebook.com/ARCSaf/,https://twitter.com/ARCSAfghanistan,Afghanistan - Afghan Red Crescent,
DAL001,Albanian Red Cross,Europe and Central Asia,ALB,AL,41.153332,20.168331,08.02.1923,"",ALL,Albania,SP5,http://www.kksh.org.al,https://www.facebook.com/kkshselia,https://twitter.com/redcrossalbania,Albania - Albanian Red Cross,
DDZ001,Algerian Red Crescent,Middle East and North Africa,DZA,DZ,28.033886,1.659626,28.08.1963,"",DZD,Algeria,SP6,http://www.cra-algerie.org,https://www.facebook.com/CRAlgerien,https://twitter.com/AlgerianRed,Algeria - Algerian Red Crescent,https://cracwto.dz/?page_id=593
DUS001,American Red Cross,Americas,USA,US,37.09024,-95.712891,05.05.1919,"",USD,United States,SP2,http://www.redcross.org,https://www.facebook.com/redcross,https://twitter.com/RedCross,United States - American Red Cross,
DAD001,Andorran Red Cross,Europe and Central Asia,AND,AD,42.546245,1.601554,27.11.1995,"",EUR,Andorra,SP5,http://www.creuroja.ad,https://www.facebook.com/CRAndorra/,https://twitter.com/creuroja,Andorra - Andorran Red Cross,
DAO001,Angola Red Cross,Africa,AGO,AO,-11.202692,17.873887,18.10.1986,"",AOA,Angola,SP1,http://www.cruzvermelha.og.ao,https://www.facebook.com/IFRC/,https://twitter.com/IFRCAfrica,Angola - Angola Red Cross,
DAG001,Antigua and Barbuda Red Cross,Americas,ATG,AG,17.060816,-61.796428,25.10.1993,"",XCD,Antigua and Barbuda,SP2,,https://www.facebook.com/AntiguaBarbudaRedCross,https://twitter.com/IFRC_es,Antigua and Barbuda - Antigua and Barbuda Red Cross,
DAR001,Argentine Red Cross,Americas,ARG,AR,-38.416097,-63.616672,23.06.1919,"",ARS,Argentina,SP2,http://www.cruzroja.org.ar,https://www.facebook.com/Cruz-Roja-Argentina-p%C3%A1gina-oficial-150908451632285/,https://twitter.com/cruzroja,Argentina - Argentine Red Cross,
DAM001,Armenian Red Cross Society,Europe and Central Asia,ARM,AM,40.069099,45.038189,27.11.1995,"",AMD,Armenia,SP5,http://redcross.am,https://www.facebook.com/ArmenianRedCrossSociety,https://twitter.com/RedCrossArmenia,Armenia - Armenian Red Cross Society,
DAU001,Australian Red Cross,Asia Pacific,AUS,AU,-25.274398,133.775136,19.06.1919,"",AUD,Australia,SP3,http://www.redcross.org.au/,https://www.facebook.com/AustralianRedCross,https://twitter.com/RedCrossAU,Australia - Australian Red Cross,
DAT001,Austrian Red Cross,Europe and Central Asia,AUT,AT,47.516231,14.550072,20.04.1921,"",EUR,Austria,SP5,http://www.roteskreuz.at,https://www.facebook.com/roteskreuzat,https://twitter.com/roteskreuzat,Austria - Austrian Red Cross,
DBH001,Bahrain Red Crescent Society,Middle East and North Africa,BHR,BH,25.930414,50.637772,11.02.1973,"",BHD,Bahrain,SP6,http://www.rcsbahrain.org,https://www.facebook.com/BahrainRedCrescent,https://twitter.com/RCSBahrain,Bahrain - Bahrain Red Crescent Society,
DBD001,Bangladesh Red Crescent Society,Asia Pacific,BGD,BD,23.684994,90.356331,11.02.1973,"",BDT,Bangladesh,SP3,http://www.bdrcs.org,https://www.facebook.com/bdredcrescent,https://twitter.com/BDRCS1,Bangladesh - Bangladesh Red Crescent Society,
DSZ001,Baphalali Eswatini Red Cross Society,Africa,SWZ,SZ,-26.522503,31.465866,10.04.1979,"",SZL,"Eswatini, the Kingdom of",SP1,,https://www.facebook.com/BaphalaliSwazilandRedCrossSociety?fref=ts,https://twitter.com/redcrosseswatin,"Eswatini, the Kingdom of - Baphalali Eswatini Red Cross Society",
DBY001,Belarus Red Cross,Europe and Central Asia,BLR,BY,53.709807,27.953389,27.11.1995,"",BYR,Belarus,SP5,http://redcross.by,https://www.facebook.com/redcross.by,https://twitter.com/ifrc_europe,Belarus - Belarus Red Cross,
DBE001,Belgian Red Cross,Europe and Central Asia,BEL,BE,50.503887,4.469936,27.05.1919,"",EUR,Belgium,SP5,"http://www.croix-rouge.be,http://www.rodekruis.be",https://www.facebook.com/CroixRouge,https://twitter.com/CroixRougeBE,Belgium - Belgian Red Cross,
DBZ001,Belize Red Cross Society,Americas,BLZ,BZ,17.189877,-88.49765,20.10.1985,"",BZD,Belize,SP2,http://www.caribbeanredcross.org/index.php/national-societies/belize,https://www.facebook.com/BelizeRedCross,https://twitter.com/belizeredcross,Belize - Belize Red Cross Society,
DBT001,Bhutan Red Cross,Asia Pacific,BTN,BT,27.46609,89.64191,09.08.2019,"",BTN,Bhutan,SP3,www.brcs.bt,https://www.facebook.com/bhutanredcrosssociety/,https://twitter.com/BhutanRed,Bhutan - Bhutan Red Cross,
DBO001,Bolivian Red Cross,Americas,BOL,BO,-16.290154,-63.588653,25.05.1923,"",BOB,"Bolivia, Plurinational State of",SP2,http://www.cruzrojaboliviana.org,https://www.facebook.com/cruzrojaboliviana,https://twitter.com/cruzrojabolivia,"Bolivia, Plurinational State of - Bolivian Red Cross",
DBW001,Botswana Red Cross Society,Africa,BWA,BW,-22.328474,24.684866,10.12.1971,"",BWP,Botswana,SP1,http://www.botswanaredcross.org.bw,https://www.facebook.com/brcspage,http://twitter.com/BotswanaRCS,Botswana - Botswana Red Cross Society,
DBR001,Brazilian Red Cross,Americas,BRA,BR,-14.235004,-51.92528,17.06.1919,"",BRL,Brazil,SP2,http://www.cruzvermelha.org.br/,https://www.facebook.com/cruzvermelhabrasileira,https://twitter.com/cvboficial,Brazil - Brazilian Red Cross,
DGB001,British Red Cross,Europe and Central Asia,GBR,GB,55.378051,-3.435973,05.05.1919,"",GBP,United Kingdom,SP5,http://www.redcross.org.uk/,https://www.facebook.com/BritishRedCross,https://twitter.com/BritishRedCross,United Kingdom - British Red Cross,
DBN001,Brunei Darussalam Red Crescent Society,Asia Pacific,BRN,BN,4.535277,114.727669,20.11.1997,"",BND,Brunei Darussalam,SP3,,https://www.facebook.com/bruneired.crescent,https://twitter.com/Bredcrescent,Brunei Darussalam - Brunei Darussalam Red Crescent Society,
DBG001,Bulgarian Red Cross,Europe and Central Asia,BGR,BG,42.733883,25.48583,20.07.1921,"",BGN,Bulgaria,SP5,http://www.redcross.bg,https://www.facebook.com/BulgarianRedCross?ref=hl,https://twitter.com/BGRedCross,Bulgaria - Bulgarian Red Cross,
DBF001,Burkinabe Red Cross Society,Africa,BFA,BF,12.238333,-1.561593,28.08.1963,"",XOF,Burkina Faso,SP1,http://www.croixrougebf.org,https://www.facebook.com/IFRC/,https://twitter.com/IFRCAfrica,Burkina Faso - Burkinabe Red Cross Society,
DBI001,Burundi Red Cross,Africa,BDI,BI,-3.373056,29.918886,28.08.1963,"",BIF,Burundi,SP1,www.croixrougeburundi.org,https://www.facebook.com/pages/Croix-Rouge-Burundi/307931025883574,https://twitter.com/CroixRougeBDI,Burundi - Burundi Red Cross,
DKH001,Cambodian Red Cross Society,Asia Pacific,KHM,KH,12.565679,104.990963,10.02.1961,"",KHR,Cambodia,SP3,http://www.redcross.org.kh,https://www.facebook.com/crcnhq,https://twitter.com/CambodianRCross,Cambodia - Cambodian Red Cross Society,
DCM001,Cameroon Red Cross Society,Africa,CMR,CM,7.369722,12.354722,28.08.1963,"",XAF,Cameroon,SP1,,https://www.facebook.com/lacroixrougecamerounaise,https://twitter.com/CroixRougeCam,Cameroon - Cameroon Red Cross Society,
DCF001,Central African Red Cross Society,Africa,CAF,CF,6.611111,20.939444,29.10.1975,"",XAF,Central African Republic,SP1,,https://www.facebook.com/pages/Croix-Rouge-Centrafricaine/1516713188552357,https://twitter.com/IFRCAfrica,Central African Republic - Central African Red Cross Society,
DCL001,Chilean Red Cross,Americas,CHL,CL,-35.675147,-71.542969,02.01.1920,"",CLP,Chile,SP2,http://www.cruzrojachilena.org  http://www.cruzroja.cl,https://www.facebook.com/pages/Cruz-Roja-Chilena/234510023233411?fref=ts,https://twitter.com/CruzRojaInforma,Chile - Chilean Red Cross,
DCO001,Colombian Red Cross Society,Americas,COL,CO,4.570868,-74.297333,29.03.1922,"",COP,Colombia,SP2,http://www.cruzrojacolombiana.org,https://www.facebook.com/pages/Cruz-Roja-Colombiana/213274742018085,https://twitter.com/cruzrojacol,Colombia - Colombian Red Cross Society,
DCG001,Congolese Red Cross,Africa,COG,CG,-0.228021,15.827659,10.07.1977,"",XAF,Congo,SP1,,https://www.facebook.com/IFRC/,https://twitter.com/IFRCAfrica,Congo - Congolese Red Cross,
DCK001,Cook Islands Red Cross Society,Asia Pacific,COK,CK,-21.236736,-159.777671,28.11.2003,"",NZD,Cook Islands,SP3,http://www.redcross.org.ck,https://www.facebook.com/cookislandsredcross/,https://twitter.com/islands_red,Cook Islands - Cook Islands Red Cross Society,
DCR001,Costa Rican Red Cross,Americas,CRI,CR,9.748917,-83.753428,04.05.1922,"",CRC,Costa Rica,SP2,http://www.cruzroja.or.cr,https://www.facebook.com/cruzrojacostarricense,https://twitter.com/CruzRojaCRC,Costa Rica - Costa Rican Red Cross,
DHR001,Croatian Red Cross,Europe and Central Asia,HRV,HR,45,15,25.10.1993,"",HRK,Croatia,SP5,http://www.hck.hr/,https://www.facebook.com/pages/Hrvatski-Crveni-kri%C5%BE/490132147765824,https://twitter.com/crvenikriz_hr,Croatia - Croatian Red Cross,https://www.instagram.com/hrvatski_crveni_kriz/?hl=hr
DCU001,Cuban Red Cross,Americas,CUB,CU,21.521757,-77.781167,17.07.1919,"",CUP,Cuba,SP2,http://www.sld.cu/sitios/cruzroja/,https://www.facebook.com/IFRC/,https://twitter.com/IFRC_es,Cuba - Cuban Red Cross,
DCY001,Cyprus Red Cross Society,Europe and Central Asia,CYP,CY,35.126413,33.429859,11.12.2013,"",EUR,Cyprus,SP5,http://www.redcross.org.cy,https://www.facebook.com/groups/64657601732/,https://twitter.com/CYRedCrossYouth,Cyprus - Cyprus Red Cross Society,
DCZ001,Czech Red Cross,Europe and Central Asia,CZE,CZ,49.817492,15.472962,25.10.1993,"",CZK,Czech Republic,SP5,http://www.cervenykriz.eu,https://www.facebook.com/cervenykriz,https://twitter.com/CCK_Tweetuje,Czech Republic - Czech Red Cross,
DDK001,Danish Red Cross,Europe and Central Asia,DNK,DK,56.26392,9.501785,07.12.1919, and rejoined in 1930,DKK,Denmark,SP5,http://www.rodekors.dk,https://www.facebook.com/roedekors,https://twitter.com/danskrodekors,Denmark - Danish Red Cross,
DDM001,Dominica Red Cross Society,Americas,DMA,DM,15.414999,-61.370976,21.10.1989,"",XCD,Dominica,SP2,http://www.caribbeanredcross.org/index.php/national-societies/dominica ,https://www.facebook.com/DominicaRedCross/,https://twitter.com/DRC_767,Dominica - Dominica Red Cross Society,
DDO001,Dominican Red Cross,Americas,DOM,DO,18.735693,-70.162651,19.01.1931,"",DOP,Dominican Republic,SP2,http://www.cruzroja.org.do/,https://www.facebook.com/IFRC/,https://twitter.com/crdominicana,Dominican Republic - Dominican Red Cross,
DEC001,Ecuadorian Red Cross,Americas,ECU,EC,-1.831239,-78.183406,25.05.1923,"",USD,Ecuador,SP2,http://www.cruzroja.org.ec,https://www.facebook.com/cruzrojaecuador,https://twitter.com/CRUZROJAECUADOR,Ecuador - Ecuadorian Red Cross,
DEG001,Egyptian Red Crescent Society,Middle East and North Africa,EGY,EG,26.820553,30.802498,23.06.1929,"",EGP,Egypt,SP6,http://www.egyptianrc.org,https://www.facebook.com/EgyptianRedCrescent,https://twitter.com/EG_Red_Crescent,Egypt - Egyptian Red Crescent Society,
DEE001,Estonia Red Cross,Europe and Central Asia,EST,EE,58.595272,25.013607,25.02.1922, and reintegrated 25.10.1993,EUR,Estonia,SP5,http://www.redcross.ee,https://www.facebook.com/punanerist/,https://twitter.com/ifrc_europe,Estonia - Estonia Red Cross,
DET001,Ethiopian Red Cross Society,Africa,ETH,ET,9.145,40.489673,16.10.1950,"",ETB,Ethiopia,SP1,http://www.redcrosseth.org,https://www.facebook.com/EthiopianRedCross,https://twitter.com/ercsinfo,Ethiopia - Ethiopian Red Cross Society,
DFJ001,Fiji Red Cross Society,Asia Pacific,FJI,FJ,-16.578193,179.414413,11.02.1973,"",FJD,Fiji,SP3,http://www.fijiredcross.org,https://www.facebook.com/FijiRedCrossSociety,https://twitter.com/fijiredcross,Fiji - Fiji Red Cross Society,
DFI001,Finnish Red Cross,Europe and Central Asia,FIN,FI,61.92411,25.748151,06.08.1921,"",EUR,Finland,SP5,http://www.redcross.fi,https://www.facebook.com/punainenristi/,https://twitter.com/PunainenRisti,Finland - Finnish Red Cross,
DFR001,French Red Cross,Europe and Central Asia,FRA,FR,46.227638,2.213749,05.05.1919,"",EUR,France,SP5,http://www.croix-rouge.fr,https://www.facebook.com/fr.CroixRouge,https://twitter.com/CroixRouge,France - French Red Cross,https://www.instagram.com/croixrougefr/?hl=fr
DGA001,Gabonese Red Cross Society,Africa,GAB,GA,-0.803689,11.609444,23.10.1999,"",XAF,Gabon,SP1,www.croixrougegabon.org,https://www.facebook.com/croix rouge gabon,https://twitter.com/Croix_Rouge_Gab,Gabon - Gabonese Red Cross Society,
DDE001,German Red Cross,Europe and Central Asia,DEU,DE,51.165691,10.451526,24.07.1952,"",EUR,Germany,SP5,http://www.drk.de/,https://www.facebook.com/roteskreuz,https://twitter.com/roteskreuz_de,Germany - German Red Cross,
DGH001,Ghana Red Cross Society,Africa,GHA,GH,7.946527,-1.023194,25.09.1959,"",GHS,Ghana,SP1,http://www.redcrossghana.org,https://www.facebook.com/ghanaredcross,https://twitter.com/ghanaredcross,Ghana - Ghana Red Cross Society,
DGD001,Grenada Red Cross Society,Americas,GRD,GD,12.262776,-61.604171,23.11.1987,"",XCD,Grenada,SP2,http://www.grenadaredcross.gd,https://www.facebook.com/GrenadaRedCrossSociety/,https://twitter.com/GrenadaRedCross,Grenada - Grenada Red Cross Society,
DGT001,Guatemalan Red Cross,Americas,GTM,GT,15.783471,-90.230759,15.08.1923,"",GTQ,Guatemala,SP2,http://www.cruzroja.gt,https://www.facebook.com/cruz.roja.guatemalteca,https://twitter.com/CRGuatemalteca,Guatemala - Guatemalan Red Cross,
DHT001,Haiti Red Cross Society,Americas,HTI,HT,18.971187,-72.285215,05.03.1937,"",HTG,Haiti,SP2,http://www.croixrouge.ht,https://www.facebook.com/pages/Soci%C3%A9t%C3%A9-Nationale-de-la-Croix-Rouge-Ha%C3%AFtienne/275292751441,https://twitter.com/kwawouj,Haiti - Haiti Red Cross Society,
DGR001,Hellenic Red Cross,Europe and Central Asia,GRC,GR,39.074208,21.824312,26.06.1919,"",EUR,Greece,SP5,http://www.redcross.gr,https://www.facebook.com/pages/Hellenic-Red-Cross-Samaritans-Rescuers-and-Lifeguards-Sector/427415810635905?fref=ts,https://twitter.com/HRC_SAMARITES,Greece - Hellenic Red Cross,
DHN001,Honduran Red Cross,Americas,HND,HN,15.199999,-86.241905,27.11.1945,"",HNL,Honduras,SP2,http://www.cruzroja.org.hn,https://www.facebook.com/IFRC/,https://twitter.com/cruzrojahon,Honduras - Honduran Red Cross,
DHU001,Hungarian Red Cross,Europe and Central Asia,HUN,HU,47.162494,19.503304,14.06.1921,"",HUF,Hungary,SP5,http://www.redcross.hu,https://www.facebook.com/magyarvoroskereszt,https://twitter.com/voroskereszt,Hungary - Hungarian Red Cross,
DIS001,Icelandic Red Cross,Europe and Central Asia,ISL,IS,64.963051,-19.020835,30.05.1925,"",ISK,Iceland,SP5,http://www.redcross.is,https://www.facebook.com/pages/Rau%C3%B0i-krossinn/289496264514612,https://twitter.com/raudikrossinn,Iceland - Icelandic Red Cross,https://www.instagram.com/raudikrossinn/
DIN001,Indian Red Cross Society,Asia Pacific,IND,IN,20.593684,78.96288,08.07.1919, as Joint War Committee Indian Branch of the Order of St. John of Jerusalem and the Britis,INR,India,SP3,http://www.indianredcross.org,https://www.facebook.com/ircsofficial/,https://twitter.com/indianredcross,India - Indian Red Cross Society,
DID001,Indonesian Red Cross Society,Asia Pacific,IDN,ID,-0.789275,113.921327,16.10.1950,"",IDR,Indonesia,SP3,http://www.pmi.or.id/,https://www.facebook.com/palangmerah,https://twitter.com/palangmerah,Indonesia - Indonesian Red Cross Society,
DIQ001,Iraqi Red Crescent Society,Middle East and North Africa,IRQ,IQ,33.223191,43.679291,23.06.1934,"",IQD,Iraq,SP6,http://www.ircs.org.iq,https://www.facebook.com/iraqircs/,https://twitter.com/iraqircs,Iraq - Iraqi Red Crescent Society,
DIE001,Irish Red Cross Society,Europe and Central Asia,IRL,IE,53.41291,-8.24389,24.11.1945,"",EUR,Ireland,SP5,http://www.redcross.ie,https://www.facebook.com/IrishRedCross,https://twitter.com/irishredcross,Ireland - Irish Red Cross Society,
DIL001,Israel - Magen David Adom in Israel,Europe and Central Asia,ISR,IL,31.046051,34.851612,22.06.2006,"",ILS,Israel,SP5,https://www.mdais.org/en/,https://www.facebook.com/mdaonline,https://twitter.com/Mdais,Israel - Israel - Magen David Adom in Israel,
DIT001,Italian Red Cross,Europe and Central Asia,ITA,IT,41.87194,12.56738,05.05.1919,"",EUR,Italy,SP5,http://www.cri.it/,https://www.facebook.com/ItalianRedCross,https://twitter.com/crocerossa,Italy - Italian Red Cross,
DJM001,Jamaica Red Cross,Americas,JAM,JM,18.109581,-77.297508,28.09.1965,"",JMD,Jamaica,SP2,http://www.jamaicaredcross.org,https://www.facebook.com/pages/Jamaica-Red-Cross/110608412288360,https://twitter.com/Jamaicaredcross,Jamaica - Jamaica Red Cross,
DJP001,Japanese Red Cross Society,Asia Pacific,JPN,JP,36.204824,138.252924,05.05.1919,"",JPY,Japan,SP3,http://www.jrc.or.jp,https://www.facebook.com/japaneseredcross,https://twitter.com/JRCS_PR,Japan - Japanese Red Cross Society,
DJO001,Jordan National Red Crescent Society,Middle East and North Africa,JOR,JO,30.585164,36.238414,16.10.1950,"",JOD,Jordan,SP6,http://www.jnrcs.org,https://www.facebook.com/JordanRedCrescent,https://twitter.com/_JNRCS,Jordan - Jordan National Red Crescent Society,
DKZ001,Kazakh Red Crescent,Europe and Central Asia,KAZ,KZ,48.019573,66.923684,28.11.2003,"",KZT,Kazakhstan,SP5,http://redcrescent.kz/,https://www.facebook.com/redcrescent.kz,https://twitter.com/kazakhrcs,Kazakhstan - Kazakh Red Crescent,https://www.instagram.com/redcrescent.kz/
DKE001,Kenya Red Cross Society,Africa,KEN,KE,-0.023559,37.906193,09.05.1967,"",KES,Kenya,SP1,http://www.redcross.or.ke,https://www.facebook.com/pages/Kenya-Red-Cross-Society/104561442936505,https://twitter.com/kenyaredcross,Kenya - Kenya Red Cross Society,
DKI001,Kiribati Red Cross Society,Asia Pacific,KIR,KI,-3.370417,-168.734039,20.11.1997,"",AUD,Kiribati,SP3,,https://www.facebook.com/KiribatiRCS/,https://twitter.com/IFRCAsiaPacific,Kiribati - Kiribati Red Cross Society,
DKW001,Kuwait Red Crescent Society,Middle East and North Africa,KWT,KW,29.31166,47.481766,09.01.1969,"",KWD,Kuwait,SP6,http://www.krcs.org.kw,https://www.facebook.com/pages/category/Nonprofit-Organization/Kuwait-Red-Crescent-Society-1472993822758152/,https://twitter.com/krcs_org_kw,Kuwait - Kuwait Red Crescent Society,
DLA001,Lao Red Cross,Asia Pacific,LAO,LA,19.85627,102.495496,26.10.1957,"",LAK,Lao People's Democratic Republic,SP3,http://www.laoredcross.org.la,https://www.facebook.com/LaoRedCrossSociety,https://twitter.com/laoredcross,Lao People's Democratic Republic - Lao Red Cross,
DLV001,Latvian Red Cross,Europe and Central Asia,LVA,LV,56.879635,24.603189,25.05.1923, and reintegrated 25.11.1991,EUR,Latvia,SP5,http://www.redcross.lv/lv,https://www.facebook.com/LatvijasSarkanaisKrusts,https://mobile.twitter.com/LSKJaunatne,Latvia - Latvian Red Cross,
DLB001,Lebanese Red Cross,Middle East and North Africa,LBN,LB,33.854721,35.862285,18.08.1948,"",LBP,Lebanon,SP6,http://www.redcross.org.lb,https://www.facebook.com/LebaneseRedCross,https://twitter.com/lebanonredcross,Lebanon - Lebanese Red Cross,
DLS001,Lesotho Red Cross Society,Africa,LSO,LS,-29.609988,28.233608,10.12.1971,"",LSL,Lesotho,SP1,http://www.redcross.org.ls,https://www.facebook.com/Lesotho-Red-Cross-Society-Mohales-Hoek-958810827471391,https://twitter.com/LesRedCross,Lesotho - Lesotho Red Cross Society,
DLR001,Liberian Red Cross Society,Africa,LBR,LR,6.428055,-9.429499,26.09.1959,"",LRD,Liberia,SP1,https://www.lnrcs.org/,https://www.facebook.com/LiberianRedCross,https://twitter.com/liberiaredcross,Liberia - Liberian Red Cross Society,
DLY001,Libyan Red Crescent,Middle East and North Africa,LBY,LY,26.3351,17.228331,26.09.1958,"",LYD,Libya,SP6,http://www.lrc.org.ly/,https://www.facebook.com/libyan.red.crescent,https://mobile.twitter.com/LibyaRC,Libya - Libyan Red Crescent,
DLI001,Liechtenstein Red Cross,Europe and Central Asia,LIE,LI,47.166,9.555373,12.05.1945,"",CHF,Liechtenstein,SP5,http://www.roteskreuz.li,https://www.facebook.com/IFRC/,https://twitter.com/ifrc_europe,Liechtenstein - Liechtenstein Red Cross,
DLT001,Lithuanian Red Cross Society,Europe and Central Asia,LTU,LT,55.169438,23.881275,01.12.1924, and reintegrated 25.11.1991,EUR,Lithuania,SP5,http://www.redcross.lt,https://www.facebook.com/redcross.lt,https://twitter.com/ifrc_europe,Lithuania - Lithuanian Red Cross Society,
DLU001,Luxembourg Red Cross,Europe and Central Asia,LUX,LU,49.815273,6.129583,29.10.1921,"",EUR,Luxembourg,SP5,http://www.croix-rouge.lu/,https://www.facebook.com/crlux,https://twitter.com/CroixRougeLu,Luxembourg - Luxembourg Red Cross,
DMG001,Malagasy Red Cross Society,Africa,MDG,MG,-18.766947,46.869107,28.08.1963,"",MGA,Madagascar,SP1,www.croixrougemalagasy.mg /;  http://piroi.croix-rouge.fr/piroi/014-madagascar,https://www.facebook.com/pg/croixrougemalagasy/posts/,https://twitter.com/MadaRedCross,Madagascar - Malagasy Red Cross Society,
DMW001,Malawi Red Cross Society,Africa,MWI,MW,-13.254308,34.301525,10.12.1971,"",MWK,Malawi,SP1,http://www.redcross.mw,https://www.facebook.com/malawiredcross,https://twitter.com/MalawiRedCross,Malawi - Malawi Red Cross Society,
DMY001,Malaysian Red Crescent Society,Asia Pacific,MYS,MY,4.210484,101.975766,28.08.1963,"",MYR,Malaysia,SP3,http://www.redcrescent.org.my,https://www.facebook.com/pages/Official-Malaysian-Red-Crescent/208197838938,https://twitter.com/malaysianrc,Malaysia - Malaysian Red Crescent Society,https://www.linkedin.com/company/malaysian-red-crescent/
DMV001,Maldivian Red Crescent,Asia Pacific,MDV,MV,3.202778,73.22068,23.11.2011,"",MVR,Maldives,SP3,http://www.redcrescent.org.mv,https://www.facebook.com/pages/Maldivian-Red-Crescent/170755969631586,https://twitter.com/maldivianrc,Maldives - Maldivian Red Crescent,https://www.instagram.com/maldivianrc/
DML001,Mali Red Cross,Africa,MLI,ML,17.570692,-3.996166,09.01.1969,"",XOF,Mali,SP1,http://www.croixrouge-mali.org,https://www.facebook.com/IFRC/,https://twitter.com/CroixRougeMali,Mali - Mali Red Cross,
DMT001,Malta Red Cross Society,Europe and Central Asia,MLT,MT,35.937496,14.375416,25.10.1993,"",EUR,Malta,SP5,http://www.redcross.org.mt,https://www.facebook.com/MaltaRedCross,https://twitter.com/maltaredcross,Malta - Malta Red Cross Society,
DMH001,Marshall Islands Red Cross Society,Asia Pacific,MHL,MH,7,171,01.01.2019,"",USD,Marshall Islands,SP3, www.rmiredcross.org,https://www.facebook.com/RMIRC/,https://twitter.com/rmiredcross,Marshall Islands - Marshall Islands Red Cross Society,
DMR001,Mauritanian Red Crescent,Africa,MRT,MR,21.00789,-10.940835,11.02.1973,"",MRO,Mauritania,SP1,,https://www.facebook.com/IFRC/,https://twitter.com/Cmauritanien,Mauritania - Mauritanian Red Crescent,
DMU001,Mauritius Red Cross Society,Africa,MUS,MU,-20.348404,57.552152,10.07.1977,"",MUR,Mauritius,SP1,http://www.mauritiusredcross.com,https://www.facebook.com/MauritiusRedCrossSociety,https://twitter.com/IFRCAfrica,Mauritius - Mauritius Red Cross Society,
DMX001,Mexican Red Cross,Americas,MEX,MX,23.634501,-102.552784,10.05.1923,"",MXN,Mexico,SP2,http://www.cruzrojamexicana.org.mx,https://www.facebook.com/pages/CRUZ-ROJA-MEXICANA/424883050267,https://twitter.com/CruzRoja_MX,Mexico - Mexican Red Cross,
DFM001,Micronesia Red Cross,Asia Pacific,FSM,FM,7.425554,150.550812,28.11.2003,"",USD,"Micronesia, Federated States of",SP3,,https://www.facebook.com/mrcs181/,https://twitter.com/mrcs27892022,"Micronesia, Federated States of - Micronesia Red Cross",
DMN001,Mongolian Red Cross Society,Asia Pacific,MNG,MN,46.862496,103.846656,25.09.1959,"",MNT,Mongolia,SP3,http://www.redcross.mn,https://www.facebook.com/Redcrossmn,https://twitter.com/RedCrossmn,Mongolia - Mongolian Red Cross Society,
DMA001,Moroccan Red Crescent,Middle East and North Africa,MAR,MA,31.791702,-7.09262,26.09.1959,"",MAD,Morocco,SP6,http://www.croissant-rouge.ma,https://www.facebook.com/croissantrougemarocain.chefchaouen,https://mobile.twitter.com/IFRC_MENA,Morocco - Moroccan Red Crescent,
DMZ001,Mozambique Red Cross Society,Africa,MOZ,MZ,-18.665695,35.529562,21.10.1989,"",MZN,Mozambique,SP1,http://www.redcross.org.mz,https://www.facebook.com/IFRC/,https://twitter.com/CruzVermelhaMOZ,Mozambique - Mozambique Red Cross Society,
DMM001,Myanmar Red Cross Society,Asia Pacific,MMR,MM,21.913965,95.956223,23.05.1946,"",MMK,Myanmar,SP3,http://www.redcross.org.mm/,https://www.facebook.com/info.mrcs,https://twitter.com/myanmarredcross,Myanmar - Myanmar Red Cross Society,
DNA001,Namibia Red Cross,Africa,NAM,NA,-22.95764,18.49041,25.10.1993,"",NAD,Namibia,SP1,http://www.redcross.org.na,https://www.facebook.com/NamibiaRedCross,https://twitter.com/NamibiaRedCross,Namibia - Namibia Red Cross,
DNP001,Nepal Red Cross Society,Asia Pacific,NPL,NP,28.394857,84.124008,28.09.1965,"",NPR,Nepal,SP3,http://www.nrcs.org,https://www.facebook.com/nepalredcross,https://twitter.com/nepalredcross,Nepal - Nepal Red Cross Society,
DNZ001,New Zealand Red Cross,Asia Pacific,NZL,NZ,-40.900557,174.885971,07.11.1919,"",NZD,New Zealand,SP3,http://www.redcross.org.nz,https://www.facebook.com/NewZealandRedCross,https://twitter.com/NZRedCross,New Zealand - New Zealand Red Cross,
DNI001,Nicaraguan Red Cross* dissolved 9 May 2023,Americas,NIC,NI,12.865416,-85.207229,17.10.1934,"",NIO,Nicaragua,SP2,http://cruzrojanicaraguense.org,https://www.facebook.com/cruzroja.nicaraguense,https://twitter.com/CruzRojaNic,Nicaragua - Nicaraguan Red Cross* dissolved 9 May 2023,
DNG001,Nigerian Red Cross Society,Africa,NGA,NG,9.081999,8.675277,10.02.1961,"",NGN,Nigeria,SP1,http://www.redcrossnigeria.org,https://www.facebook.com/NigerianRedCrossSocietyNhqts,https://twitter.com/nrcs_ng,Nigeria - Nigerian Red Cross Society,
DNO001,Norwegian Red Cross,Europe and Central Asia,NOR,NO,60.472024,8.468946,27.05.1919, and 01.01.1930,NOK,Norway,SP5,http://www.redcross.no,https://www.facebook.com/rodekors,https://twitter.com/rodekorsnorge,Norway - Norwegian Red Cross,
DPK001,Pakistan Red Crescent,Asia Pacific,PAK,PK,30.375321,69.345116,18.08.1948,"",PKR,Pakistan,SP3,http://www.prcs.org.pk,https://www.facebook.com/PakistanRedCrescent,https://twitter.com/prcs_official,Pakistan - Pakistan Red Crescent,
DPW001,Palau Red Cross Society,Asia Pacific,PLW,PW,7.51498,134.58252,20.11.1997,"",USD,Palau,SP3,www.palauredcross.org ,https://www.facebook.com/palauredcross/,https://twitter.com/palauredcross,Palau - Palau Red Cross Society,Instagram
DPG001,Papua New Guinea Red Cross Society,Asia Pacific,PNG,PG,-6.314993,143.95555,10.07.1977,"",PGK,Papua New Guinea,SP3,www.redcross.org.pg,https://www.facebook.com/PNGRedCrossSociety/,https://twitter.com/PNGRedCross,Papua New Guinea - Papua New Guinea Red Cross Society,
DPY001,Paraguayan Red Cross,Americas,PRY,PY,-23.442503,-58.443832,23.03.1922,"",PYG,Paraguay,SP2,http://www.cruzroja.org.py,https://www.facebook.com/CRUZROJAPARAGUAYA.Oficial,https://twitter.com/cruz_rojapy,Paraguay - Paraguayan Red Cross,
DPE001,Peruvian Red Cross,Americas,PER,PE,-9.189967,-75.015152,19.06.1919,"",PEN,Peru,SP2,http://www.cruzroja.org.pe,https://www.facebook.com/pages/Cruz-Roja-Peruana/113277568740969,https://twitter.com/CruzRojaPeru,Peru - Peruvian Red Cross,
DPH001,Philippine Red Cross,Asia Pacific,PHL,PH,12.879721,121.774017,18.08.1948,"",PHP,Philippines,SP3,http://www.redcross.org.ph,https://www.facebook.com/phredcross,https://twitter.com/philredcross,Philippines - Philippine Red Cross,
DPL001,Polish Red Cross,Europe and Central Asia,POL,PL,51.919438,19.145136,16.09.1919,"",PLN,Poland,SP5,http://www.pck.org.pl,https://www.facebook.com/PolskiCzerwonyKrzyz,https://twitter.com/PCK_PRC,Poland - Polish Red Cross,
DPT001,Portuguese Red Cross,Europe and Central Asia,PRT,PT,39.399872,-8.224454,28.05.1919,"",EUR,Portugal,SP5,http://www.cruzvermelha.pt,https://www.facebook.com/cruzvermelhaportuguesa.sede,https://twitter.com/cvpsedenacional,Portugal - Portuguese Red Cross,
DQA001,Qatar Red Crescent Society,Middle East and North Africa,QAT,QA,25.354826,51.183884,11.02.1981,"",QAR,Qatar,SP6,http://www.qrcs.org.qa,https://www.facebook.com/QatarRedCrescent,https://twitter.com/qrcs,Qatar - Qatar Red Crescent Society,
DAZ001,Red Crescent Society of Azerbaijan,Europe and Central Asia,AZE,AZ,40.143105,47.576927,27.11.1995,"",AZN,Azerbaijan,SP5,http://www.redcrescent.az,https://www.facebook.com/pages/Azerbaijan-Red-Crescent-Society/383745211673875?fref=ts,https://twitter.com/azredcrescent,Azerbaijan - Red Crescent Society of Azerbaijan,
DDJ001,Red Crescent Society of Djibouti,Africa,DJI,DJ,11.825138,42.590275,18.10.1986,"",DJF,Djibouti,SP1,,https://www.facebook.com/IFRC/,https://twitter.com/IFRCAfrica,Djibouti - Red Crescent Society of Djibouti,
DKG001,Red Crescent Society of Kyrgyzstan,Europe and Central Asia,KGZ,KG,41.20438,74.766098,20.11.1997,"",KGS,Kyrgyzstan,SP5,http://www.redcrescent.kg,https://www.facebook.com/kyrgyzredcrescent/,https://twitter.com/redcrescent_kg,Kyrgyzstan - Red Crescent Society of Kyrgyzstan,"redcrescent.kg (instagram), https://t.me/redcrescentkg (telegram)"
DTJ001,Red Crescent Society of Tajikistan,Europe and Central Asia,TJK,TJ,38.861034,71.276093,20.11.1997,"",TJS,Tajikistan,SP5,http://www.redcrescent.tj,https://www.facebook.com/TajikistanRedCrescent/?fref=mentions&__tn__=K-R,https://twitter.com/redcrescent_tj,Tajikistan - Red Crescent Society of Tajikistan,
DIR001,Red Crescent Society of the Islamic Republic of Iran,Middle East and North Africa,IRN,IR,32.427908,53.688046,21.01.1929,"",IRR,"Iran, Islamic Republic of",SP6,http://en.rcs.ir/,https://www.facebook.com/Red-Crescent-Society-of-the-Islamic-Republic-of-Iran-301841789872739/,https://twitter.com/Iranian_RCS,"Iran, Islamic Republic of - Red Crescent Society of the Islamic Republic of Iran",
DAE001,Red Crescent Society of the United Arab Emirates,Middle East and North Africa,ARE,AE,23.424076,53.847818,18.10.1986,"",AED,United Arab Emirates,SP6,http://rcuae.ae,https://www.facebook.com/uaerc1?fref=ts,https://twitter.com/uaerc1,United Arab Emirates - Red Crescent Society of the United Arab Emirates,
DTM001,Red Crescent Society of Turkmenistan,Europe and Central Asia,TKM,TM,38.969719,59.556278,27.11.1995,"",TMT,Turkmenistan,SP5,www.tgymj.gov.tm,https://www.facebook.com/IFRC/,https://twitter.com/IFRC_Europe,Turkmenistan - Red Crescent Society of Turkmenistan,
DUZ001,Red Crescent Society of Uzbekistan,Europe and Central Asia,UZB,UZ,41.377491,64.585262,27.11.1995,"",UZS,Uzbekistan,SP5,http://redcrescent.uz,https://www.facebook.com/IFRC/,https://twitter.com/IFRC_Europe,Uzbekistan - Red Crescent Society of Uzbekistan,
DBJ001,Red Cross of Benin,Africa,BEN,BJ,9.30769,2.315834,28.08.1963,"",XOF,Benin,SP1,http://croixrougebenin.org/,https://www.facebook.com/people/Croix-Rouge-B%C3%A9ninoise/100008284321208,https://twitter.com/IFRCAfrica,Benin - Red Cross of Benin,
DCV001,Red Cross of Cape Verde,Africa,CPV,CV,16.002082,-24.013197,20.10.1985,"",CVE,Cape Verde,SP1,https://www.cruzvermelha.org.cv/,https://www.facebook.com/IFRC/,https://twitter.com/IFRCAfrica,Cape Verde - Red Cross of Cape Verde,
DTD001,Red Cross of Chad,Africa,TCD,TD,15.454166,18.732207,21.10.1989,"",XAF,Chad,SP1,http://croixrougedutchad.org/,https://www.facebook.com/IFRC/,https://twitter.com/IFRCAfrica,Chad - Red Cross of Chad,
DGQ001,Red Cross of Equatorial Guinea,Africa,GNQ,GQ,1.650801,10.267895,27.11.1995,"",XAF,Equatorial Guinea,SP1,,https://www.facebook.com/IFRC/,https://twitter.com/IFRCAfrica,Equatorial Guinea - Red Cross of Equatorial Guinea,
DMC001,Red Cross of Monaco,Europe and Central Asia,MCO,MC,43.750298,7.412841,18.08.1948,"",EUR,Monaco,SP5,http://www.croix-rouge.mc,https://www.facebook.com/croixrouge.monaco,https://mobile.twitter.com/croixrougemc,Monaco - Red Cross of Monaco,
DME001,Red Cross of Montenegro,Europe and Central Asia,MNE,ME,42.708678,19.37439,20.11.2007,"",EUR,Montenegro,SP5,http://www.ckcg.me,https://www.facebook.com/Crveni-Krst-Crne-Gore-1586254138252894/?fref=ts,https://twitter.com/CKCG_MRC,Montenegro - Red Cross of Montenegro,ckcg_red_cross_of_montenegro
DCD001,Red Cross of the Democratic Republic of the Congo,Africa,COD,CD,-4.038333,21.758664,28.08.1963,"",CDF,"Congo, the Democratic Republic of the",SP1,http://www.croixrouge-rdc.org,https://www.facebook.com/Croix-Rouge-Congo-Brazzaville-595974027195586/,https://twitter.com/crrdc1,"Congo, the Democratic Republic of the - Red Cross of the Democratic Republic of the Congo",
DSM001,Red Cross of the Republic of San Marino,Europe and Central Asia,SMR,SM,43.94236,12.457777,25.07.1952,"",EUR,San Marino,SP5,https://www.crs.sm/chi-siamo.html,https://www.facebook.com/profile.php?id=100054296390310,https://twitter.com/IFRC_Europe,San Marino - Red Cross of the Republic of San Marino,
DCN001,Red Cross Society of China,Asia Pacific,CHN,CN,35.86166,104.195397,27.07.1919,"",CNY,China,SP3,http://www.redcross.org.cn,https://www.facebook.com/IFRC/,https://twitter.com/crcfchn,China - Red Cross Society of China,
DCI001,Red Cross Society of Côte d'Ivoire,Africa,CIV,CI,7.539989,-5.54708,28.08.1963,"",XOF,Côte d'Ivoire,SP1,www.croixrougeci.org,https://www.facebook.com/IFRC/,https://twitter.com/CroixRougeCI,Côte d'Ivoire - Red Cross Society of Côte d'Ivoire,
DGE001,Red Cross Society of Georgia,Europe and Central Asia,GEO,GE,42.315407,43.356892,20.11.1997,"",GEL,Georgia,SP5,http://www.redcross.ge,https://www.facebook.com/GeorgiaRedCross,https://twitter.com/GARedCross,Georgia - Red Cross Society of Georgia,
DGN001,Red Cross Society of Guinea,Africa,GIN,GN,9.945587,-9.696645,18.10.1986,"",GNF,Guinea,SP1,"https://www.facebook.com/croixrougeguinee/  , http://croix-rougeguineenne.over-blog.com/",https://www.facebook.com/IFRC/,https://twitter.com/croixrougegn,Guinea - Red Cross Society of Guinea,
DGW001,Red Cross Society of Guinea-Bissau,Africa,GNB,GW,11.803749,-15.180413,18.10.1986,"",XOF,Guinea-Bissau,SP1,,https://www.facebook.com/IFRC/,https://twitter.com/IFRCAfrica,Guinea-Bissau - Red Cross Society of Guinea-Bissau,
DNE001,Red Cross Society of Niger,Africa,NER,NE,17.607789,8.081666,28.09.1965,"",XOF,Niger,SP1,www.croix-rouge.ne,https://www.facebook.com/IFRC/,https://twitter.com/IFRCAfrica,Niger - Red Cross Society of Niger,
DPA001,Red Cross Society of Panama,Americas,PAN,PA,8.537981,-80.782127,13.02.1925,"",PAB,Panama,SP2,http://www.cruzroja.org.pa,https://www.facebook.com/CruzRojaPanama,https://twitter.com/cruzrojapanama,Panama - Red Cross Society of Panama,
DKP001,Red Cross Society of the Democratic People's Republic of Korea,Asia Pacific,PRK,KP,40.339852,127.510093,26.10.1957,"",KPW,"Korea, Democratic People's Republic of",SP3,,https://www.facebook.com/IFRC/,https://twitter.com/IFRCAsiaPacific,"Korea, Democratic People's Republic of - Red Cross Society of the Democratic People's Republic of Korea",
DMD001,Red Cross Society of the Republic of Moldova,Europe and Central Asia,MDA,MD,47.411631,28.369885,11.07.2001,"",MDL,"Moldova, Republic of",SP5,http://redcross.md,https://www.facebook.com/redcross.md/,https://twitter.com/ifrc_europe,"Moldova, Republic of - Red Cross Society of the Republic of Moldova",
DRO001,Romanian Red Cross,Europe and Central Asia,ROU,RO,45.943161,24.96676,14.07.1919,"",RON,Romania,SP5,http://www.crucearosie.ro/.,https://www.facebook.com/crucearosieromana,https://twitter.com/CruceaRosie,Romania - Romanian Red Cross,
DRW001,Rwandan Red Cross,Africa,RWA,RW,-1.940278,29.873888,10.08.1983,"",RWF,Rwanda,SP1,http://www.rwandaredcross.org,https://www.facebook.com/rwandaredcross/,https://twitter.com/Rwandaredcross,Rwanda - Rwandan Red Cross,
DKN001,Saint Kitts and Nevis Red Cross Society,Americas,KNA,KN,17.357822,-62.782998,25.10.1993,"",XCD,Saint Kitts and Nevis,SP2,http://www.,https://www.facebook.com/sknredcross/,https://twitter.com/IFRC_es,Saint Kitts and Nevis - Saint Kitts and Nevis Red Cross Society,
DLC001,Saint Lucia Red Cross,Americas,LCA,LC,13.909444,-60.978893,18.10.1986,"",XCD,Saint Lucia,SP2,https://www.saintluciaredcross.org/,https://www.facebook.com/St-Lucia-Red-Cross-134328699943783/,https://twitter.com/sluredcross,Saint Lucia - Saint Lucia Red Cross,
DVC001,Saint Vincent and the Grenadines Red Cross,Americas,VCT,VC,12.984305,-61.287228,21.10.1989,"",XCD,Saint Vincent and the Grenadines,SP2,http://www.caribbeanredcross.org/index.php/national-societies/st-vincent-athe-grenadines-,https://www.facebook.com/SVGRedCross/,https://twitter.com/svgrcs,Saint Vincent and the Grenadines - Saint Vincent and the Grenadines Red Cross,
DSV001,Salvadorean Red Cross Society,Americas,SLV,SV,13.794185,-88.89653,24.06.1925,"",USD,El Salvador,SP2,http://www.cruzrojasal.org.sv,https://www.facebook.com/Cruz-Roja-Salvadore%C3%B1a-975551735836711/,https://twitter.com/CruzRojaSal,El Salvador - Salvadorean Red Cross Society,
DWS001,Samoa Red Cross Society,Asia Pacific,WSM,WS,-13.759029,-172.104629,20.10.1985,"",WST,Samoa,SP3,http://www.redcross.org.ws,https://www.facebook.com/samoaredcross/,https://twitter.com/samoaredcross,Samoa - Samoa Red Cross Society,
DST001,Sao Tome and Principe Red Cross,Africa,STP,ST,0.18636,6.613081,20.10.1985,"",STN,Sao Tome and Principe,SP1,http://www.cruzvermelha-stop.org,https://www.facebook.com/IFRC/,https://twitter.com/IFRCAfrica,Sao Tome and Principe - Sao Tome and Principe Red Cross,
DSA001,Saudi Red Crescent Authority,Middle East and North Africa,SAU,SA,23.885942,45.079162,28.08.1963,"",SAR,Saudi Arabia,SP6,http://www.srca.org.sa,https://www.facebook.com/srca997,https://twitter.com/mediasrca,Saudi Arabia - Saudi Red Crescent Authority,
DSN001,Senegalese Red Cross Society,Africa,SEN,SN,14.497401,-14.452362,28.08.1963,"",XOF,Senegal,SP1,http://www.croixrougesenegal.com,https://www.facebook.com/croixrouge.senegalaise,https://twitter.com/Csenegalaise,Senegal - Senegalese Red Cross Society,
DSC001,Seychelles Red Cross Society,Africa,SYC,SC,-4.679574,55.491977,25.10.1993,"",SCR,Seychelles,SP1,http://www.seychellesredcross.sc,https://www.facebook.com/IFRC/,https://twitter.com/RedCrossSez,Seychelles - Seychelles Red Cross Society,
DSL001,Sierra Leone Red Cross Society,Africa,SLE,SL,8.460555,-11.779889,28.08.1963,"",SLL,Sierra Leone,SP1,http://www.sierraleoneredcross.org,https://www.facebook.com/Sierra-Leone-Red-Cross-Society-409074739209297/,https://twitter.com/LeoneSociety,Sierra Leone - Sierra Leone Red Cross Society,
DSG001,Singapore Red Cross Society,Asia Pacific,SGP,SG,1.352083,103.819836,11.02.1973,"",SGD,Singapore,SP3,http://www.redcross.sg,https://www.facebook.com/sgredcross,https://twitter.com/SGRedCross,Singapore - Singapore Red Cross Society,
DSK001,Slovak Red Cross,Europe and Central Asia,SVK,SK,48.669026,19.699024,25.10.1993,"",EUR,Slovakia,SP5,http://www.redcross.sk,https://www.facebook.com/slovenskycervenykriz,https://twitter.com/SlovakRedCross (currently not actively used),Slovakia - Slovak Red Cross,https://www.instagram.com/slovak_red_cross/
DSI001,Slovenian Red Cross,Europe and Central Asia,SVN,SI,46.151241,14.995463,25.10.1993,"",EUR,Slovenia,SP5,http://www.rks.si/,https://www.facebook.com/rdeci.slovenije,https://twitter.com/OZRKLjubljana,Slovenia - Slovenian Red Cross,
DSO001,Somali Red Crescent Society,Africa,SOM,SO,5.152149,46.199616,09.01.1969,"",SOS,Somalia,SP1,,https://www.facebook.com/IFRC/,https://twitter.com/IFRCAfrica,Somalia - Somali Red Crescent Society,
DSS001,South Sudan Red Cross,Africa,SSD,SS,6.877,31.307,11.12.2013,"",SSP,South Sudan,SP1,http://www.southsudanredcross.org,https://www.facebook.com/groups/115368533041#!/pages/South-Sudan-Red-Cross/227712893929219,https://twitter.com/SSRCS,South Sudan - South Sudan Red Cross,
DES001,Spanish Red Cross,Europe and Central Asia,ESP,ES,40.463667,-3.74922,22.08.1919,"",EUR,Spain,SP5,http://www.cruzroja.es/,https://www.facebook.com/CruzRoja.es,https://twitter.com/CruzRojaEsp,Spain - Spanish Red Cross,
DLK001,Sri Lanka Red Cross Society,Asia Pacific,LKA,LK,7.873054,80.771797,25.07.1952,"",LKR,Sri Lanka,SP3,http://www.redcross.lk,https://www.facebook.com/srilankaredcross,http://twitter.com/SLRedCross,Sri Lanka - Sri Lanka Red Cross Society,
DSR001,Suriname Red Cross,Americas,SUR,SR,3.919305,-56.027783,18.10.1986,"",SRD,Suriname,SP2,,https://www.facebook.com/surinaamserodekruis/,https://twitter.com/surcross,Suriname - Suriname Red Cross,
DSE001,Swedish Red Cross,Europe and Central Asia,SWE,SE,60.128161,18.643501,26.06.1919, and 1930,SEK,Sweden,SP5,http://www.redcross.se,https://www.facebook.com/rodakorset,https://twitter.com/rodakorset,Sweden - Swedish Red Cross,
DCH001,Swiss Red Cross,Europe and Central Asia,CHE,CH,46.818188,8.227512,11.02.1919,"",CHF,Switzerland,SP5,http://www.redcross.ch,https://www.facebook.com/CroixRougeSuisse?ref=hl,https://twitter.com/redcross_ch,Switzerland - Swiss Red Cross,
DSY001,Syrian Arab Red Crescent,Middle East and North Africa,SYR,SY,34.802075,38.996815,18.08.1948, and 29.09.1962,SYP,Syrian Arab Republic,SP6,http://www.sarc.sy,https://www.facebook.com/SYRedCrescent,https://twitter.com/SYRedCrescent,Syrian Arab Republic - Syrian Arab Red Crescent,
DTZ001,Tanzania Red Cross National Society,Africa,TZA,TZ,-6.369028,34.888822,28.08.1963,"",TZS,"Tanzania, United Republic of",SP1,http://www.trcs.or.tz,https://www.facebook.com/pages/Tanzania-Red-Cross-Society/229842677040279?fref=ts,https://twitter.com/trcs1,"Tanzania, United Republic of - Tanzania Red Cross National Society",
DBS001,The Bahamas Red Cross Society,Americas,BHS,BS,25.03428,-77.39628,10.07.1977,"",BSD,Bahamas,SP2,http://bahamasredcross.com,https://www.facebook.com/Bahamas-Red-Cross-Society-287498687576/,https://twitter.com/BahamasRedCross,Bahamas - The Bahamas Red Cross Society,
DBB001,The Barbados Red Cross Society,Americas,BRB,BB,13.193887,-59.543198,20.10.1985,"",BBD,Barbados,SP2,http://www.barbadosredcross.org/,https://www.facebook.com/Barbados-Red-Cross-113633962022333/,https://twitter.com/BdosRedCross,Barbados - The Barbados Red Cross Society,
DCA001,The Canadian Red Cross Society,Americas,CAN,CA,56.130366,-106.346771,20.06.1919,"",CAD,Canada,SP2,http://www.redcross.ca/,https://www.facebook.com/canadianredcross,https://twitter.com/redcrosscanada,Canada - The Canadian Red Cross Society,
DKM001,The Comoros Red Crescent,Africa,COM,KM,-11.875001,43.872219,11.11.2005,"",KMF,Comoros,SP1,http://www.cr-comorien.org,https://www.facebook.com/pages/Croissant-Rouge-Comorien/127754897256789,https://twitter.com/IFRCAfrica,Comoros - The Comoros Red Crescent,
DGM001,The Gambia Red Cross Society,Africa,GMB,GM,13.443182,-15.310139,29.10.1975,"",GMD,Gambia,SP1,http://www.gamredcross.org/,https://www.facebook.com/pages/Gambia-Red-Cross-Society/112881902074879,https://twitter.com/GambiaRedCross,Gambia - The Gambia Red Cross Society,
DGY001,The Guyana Red Cross Society,Americas,GUY,GY,4.860416,-58.93018,09.01.1969,"",GYD,Guyana,SP2,http://guyanaredcross.org.gy,https://www.facebook.com/RedCrossGuyana,https://twitter.com/IFRC_es,Guyana - The Guyana Red Cross Society,
DNL001,The Netherlands Red Cross,Europe and Central Asia,NLD,NL,52.132633,5.291266,15.08.1919,"",EUR,Netherlands,SP5,http://www.rodekruis.nl/,https://www.facebook.com/rodekruis,https://twitter.com/RodeKruis,Netherlands - The Netherlands Red Cross,
DPS001,The Palestine Red Crescent Society,Middle East and North Africa,PSE,PS,31.952162,35.233154,22.06.2006,"",ILS,"Palestine, State of",SP6,http://www.palestinercs.org,https://www.facebook.com/pg/PalestineRCS/community/?ref=page_internal,https://twitter.com/PalestineRCS,"Palestine, State of - The Palestine Red Crescent Society",
DMK001,Red Cross of North Macedonia,Europe and Central Asia,MKD,MK,41.608635,21.745275,27.11.1995,"",MKD,North Macedonia,SP5,http://www.ckrm.org.mk,https://www.facebook.com/CrvenKrstNaRepublikaMakedonija,https://twitter.com/skopjeredcross?lang=nl,North Macedonia - Red Cross of North Macedonia,
DRS001,The Red Cross of Serbia,Europe and Central Asia,SRB,RS,44.016521,21.005859,22.08.1919, and confirmed 27.10.2006,RSD,Serbia,SP5,http://www.redcross.org.rs,https://www.facebook.com/redcrossofserbia,https://twitter.com/cksrbije,Serbia - The Red Cross of Serbia,
DBA001,The Red Cross Society of Bosnia and Herzegovina,Europe and Central Asia,BIH,BA,43.915886,17.679076,11.07.2001,"",BAM,Bosnia and Herzegovina,SP5,http://www.rcsbh.org,https://www.facebook.com/pages/Crveni-kri%C5%BE-Federacije-Bosne-i-Hercegovine/470231829689360,https://twitter.com/redcrossbh,Bosnia and Herzegovina - The Red Cross Society of Bosnia and Herzegovina,
DKR001,The Republic of Korea National Red Cross,Asia Pacific,KOR,KR,35.907757,127.766922,26.10.1957,"",KRW,"Korea, Republic of",SP3,http://www.redcross.or.kr,https://www.facebook.com/KoreanRedCross,https://twitter.com/KoreanRedCross,"Korea, Republic of - The Republic of Korea National Red Cross",
DRU001,The Russian Red Cross Society,Europe and Central Asia,RUS,RU,61.52401,105.318756,19.10.1934,"",RUB,Russian Federation,SP5,http://www.redcross.ru/,https://www.facebook.com/RussianRedCross1/,https://twitter.com/RussianRedCross,Russian Federation - The Russian Red Cross Society,
DSB001,The Solomon Islands Red Cross,Asia Pacific,SLB,SB,-9.64571,160.156194,25.11.1991,"",SBD,Solomon Islands,SP3,,https://www.facebook.com/solomonislandsredcrosssociety/,https://twitter.com/IFRCAsiaPacific,Solomon Islands - The Solomon Islands Red Cross,
DZA001,The South African Red Cross Society,Africa,ZAF,ZA,-30.559482,22.937506,24.06.1919,"",ZAR,South Africa,SP1,http://www.redcross.org.za,https://www.facebook.com/SouthAfricanRedCross/?fref=mentions&__tn__=K-R,https://twitter.com/SARedCross,South Africa - The South African Red Cross Society,
DSD001,The Sudanese Red Crescent,Africa,SDN,SD,12.862807,30.217636,11.04.1957,"",SDG,Sudan,SP1,https://srcs.sd/,https://www.facebook.com/groups/115368533041,https://twitter.com/srcs_sd,Sudan - The Sudanese Red Crescent,
DTH001,The Thai Red Cross Society,Asia Pacific,THA,TH,15.870032,100.992541,04.08.1921,"",THB,Thailand,SP3,http://www.redcross.or.th,https://www.facebook.com/ThaiRedCrossSociety,https://twitter.com/ThaiRedCross,Thailand - The Thai Red Cross Society,
DTT001,The Trinidad and Tobago Red Cross Society,Americas,TTO,TT,10.691803,-61.222503,28.08.1963,"",TTD,Trinidad and Tobago,SP2,http://www.caribbeanredcross.org/index.php/national-societies/trinidad-a-tobago,https://www.facebook.com/TTRCS/,https://twitter.com/Ttredcross,Trinidad and Tobago - The Trinidad and Tobago Red Cross Society,
DUG001,The Uganda Red Cross Society,Africa,UGA,UG,1.373333,32.290275,28.09.1965,"",UGX,Uganda,SP1,http://www.redcrossug.org,https://www.facebook.com/pages/Uganda-Red-Cross-Society/117683891624272,https://twitter.com/ugandaredcross,Uganda - The Uganda Red Cross Society,
DTL001,Timor-Leste Red Cross Society,Asia Pacific,TLS,TL,-8.874217,125.727539,11.11.2005,"",IDR,Timor-Leste,SP3,http://www.redcross.tl,https://www.facebook.com/pages/Cruz-Vermelha-de-Timor-Leste/422556931191491,https://twitter.com/cvtl_tl?lang=nl,Timor-Leste - Timor-Leste Red Cross Society,
DTG001,Togolese Red Cross,Africa,TGO,TG,8.619543,0.824782,10.02.1961,"",XOF,Togo,SP1,http://www.crt-plateaux.org/ http://croixrougetogo.org/,https://www.facebook.com/IFRC/,https://twitter.com/IFRCAfrica,Togo - Togolese Red Cross,
DTO001,Tonga Red Cross Society,Asia Pacific,TON,TO,-21.178986,-175.198242,11.02.1981,"",TOP,Tonga,SP3,http://www.tongaredcross.com,https://www.facebook.com/groups/tongaredcrosssocity/?fref=ts,https://twitter.com/RedCross4,Tonga - Tonga Red Cross Society,
DTN001,Tunisian Red Crescent,Middle East and North Africa,TUN,TN,33.886917,9.537499,26.10.1957,"",TND,Tunisia,SP6,http://www.crt.tn,https://www.facebook.com/CRTunisien,https://twitter.com/CroissantRouge,Tunisia - Tunisian Red Crescent,
DTR001,Turkish Red Crescent Society,Europe and Central Asia,TUR,TR,38.963745,35.243322,04.07.1930,"",TRY,Türkiye,SP5,http://www.kizilay.org.tr/,https://www.facebook.com/TurkKizilayi.org,https://twitter.com/TurkKizilayi,Türkiye - Turkish Red Crescent Society,
DTV001,Tuvalu Red Cross Society,Asia Pacific,TUV,TV,-7.109535,177.64933,12.04.2015,"","TVD,AUD",Tuvalu,SP3,,https://www.facebook.com/pages/Tuvalu-Red-Cross-Society/130692570364286?fref=ts,https://twitter.com/IFRCAsiaPacific,Tuvalu - Tuvalu Red Cross Society,
DUA001,Ukrainian Red Cross Society,Europe and Central Asia,UKR,UA,48.379433,31.16558,25.10.1993,"",UAH,Ukraine,SP5,http://www.redcross.org.ua,https://www.facebook.com/RedCrossUkraine/,https://twitter.com/RedCrossUkraine,Ukraine - Ukrainian Red Cross Society,
DUY001,Uruguayan Red Cross,Americas,URY,UY,-32.522779,-55.765835,17.01.1920,"",UYU,Uruguay,SP2,https://cruzroja.org.uy/,https://www.facebook.com/Cruz-Roja-Uruguaya-Oficial-1628898260681276/,https://twitter.com/cruzrojauruguay,Uruguay - Uruguayan Red Cross,https://www.instagram.com/cruzrojauy/
DVU001,Vanuatu Red Cross Society,Asia Pacific,VUT,VU,-15.376706,166.959158,25.10.1993,"",VUV,Vanuatu,SP3,www.vanuaturedcross.org,https://www.facebook.com/VanuatuRedCross,https://twitter.com/vanuaturedcross,Vanuatu - Vanuatu Red Cross Society,
DVE001,Venezuelan Red Cross,Americas,VEN,VE,6.42375,-66.58973,15.07.1919,"",VEB,"Venezuela, Bolivarian Republic of",SP2,http://www.cruzrojavenezolana.org,https://www.facebook.com/crvenezuela,https://twitter.com/crvoficial,"Venezuela, Bolivarian Republic of - Venezuelan Red Cross",
DVN001,Vietnam Red Cross Society,Asia Pacific,VNM,VN,14.058324,108.277199,11.04.1957,"",VND,Viet Nam,SP3,http://www.redcross.org.vn,https://www.facebook.com/redcross.org.vn,https://twitter.com/vietnamredcross,Viet Nam - Vietnam Red Cross Society,
DYE001,Yemen Red Crescent Society,Middle East and North Africa,YEM,YE,15.552727,48.516388,10.08.1983,"",YER,Yemen,SP6,http://yemenredcrescent.org/,https://www.facebook.com/YRCSociety,https://twitter.com/YemenCrescent,Yemen - Yemen Red Crescent Society,
DZM001,Zambia Red Cross Society,Africa,ZMB,ZM,-13.133897,27.849332,09.05.1967,"",ZMW,Zambia,SP1,http://www.zamcross.org.zm/,https://www.facebook.com/Zambia-Red-Cross-Society-Headquaters-988838501146286/info/,https://twitter.com/ZambiaRedCross,Zambia - Zambia Red Cross Society,
DZW001,Zimbabwe Red Cross Society,Africa,ZWE,ZW,-19.015438,29.154857,10.08.1983,"",ZWD,Zimbabwe,SP1,http://www.redcrosszim.org.zw,https://www.facebook.com/pages/Zimbabwe-Red-Cross-Society/577243282309698?fref=ts,https://twitter.com/ZrcsRed,Zimbabwe - Zimbabwe Red Cross Society,
